[
  {
    "nom": "Lille",
    "slug": "lille",
    "codeInsee": "59350",
    "codePostal": "59000",
    "population": 238246,
    "latitude": 50.6311,
    "longitude": 3.0468,
    "altitude": 20,
    "logements": 128782,
    "logementsMaison": 28,
    "prixM2Moyen": 3650,
    "vehiculesElectriques": 9564,
    "croissanceVE": 24,
    "bornesPubliques": 167,
    "intercommunalite": "Métropole Européenne de Lille (MEL)",
    "canton": "Lille"
  },
  {
    "nom": "Tourcoing",
    "slug": "tourcoing",
    "codeInsee": "59599",
    "codePostal": "59200",
    "population": 98772,
    "latitude": 50.721,
    "longitude": 3.1577,
    "altitude": 45,
    "logements": 48181,
    "logementsMaison": 64,
    "prixM2Moyen": 2110,
    "vehiculesElectriques": 3479,
    "croissanceVE": 29,
    "bornesPubliques": 64,
    "intercommunalite": "Métropole Européenne de Lille (MEL)",
    "canton": "Tourcoing"
  },
  {
    "nom": "Roubaix",
    "slug": "roubaix",
    "codeInsee": "59512",
    "codePostal": "59100",
    "population": 98286,
    "latitude": 50.6887,
    "longitude": 3.1843,
    "altitude": 35,
    "logements": 47944,
    "logementsMaison": 64,
    "prixM2Moyen": 1960,
    "vehiculesElectriques": 3407,
    "croissanceVE": 30,
    "bornesPubliques": 62,
    "intercommunalite": "Métropole Européenne de Lille (MEL)",
    "canton": "Roubaix"
  },
  {
    "nom": "Dunkerque",
    "slug": "dunkerque",
    "codeInsee": "59183",
    "codePostal": "59140",
    "population": 86263,
    "latitude": 51.0183,
    "longitude": 2.3431,
    "altitude": 4,
    "logements": 42080,
    "logementsMaison": 49,
    "prixM2Moyen": 2170,
    "vehiculesElectriques": 2809,
    "croissanceVE": 23,
    "bornesPubliques": 59,
    "intercommunalite": "Communauté Urbaine de Dunkerque (CUD)",
    "canton": "Dunkerque"
  },
  {
    "nom": "Villeneuve-d'Ascq",
    "slug": "villeneuve-d-ascq",
    "codeInsee": "59009",
    "codePostal": "59491",
    "population": 62868,
    "latitude": 50.6362,
    "longitude": 3.1619,
    "altitude": 34,
    "logements": 30667,
    "logementsMaison": 81,
    "prixM2Moyen": 3840,
    "vehiculesElectriques": 3199,
    "croissanceVE": 26,
    "bornesPubliques": 43,
    "intercommunalite": "Métropole Européenne de Lille (MEL)",
    "canton": "Villeneuve-d'Ascq"
  },
  {
    "nom": "Valenciennes",
    "slug": "valenciennes",
    "codeInsee": "59606",
    "codePostal": "59300",
    "population": 43468,
    "latitude": 50.362,
    "longitude": 3.5142,
    "altitude": 30,
    "logements": 21204,
    "logementsMaison": 86,
    "prixM2Moyen": 1990,
    "vehiculesElectriques": 1305,
    "croissanceVE": 29,
    "bornesPubliques": 32,
    "intercommunalite": "Communauté d'Agglomération de Valenciennes Métropole",
    "canton": "Valenciennes"
  },
  {
    "nom": "Wattrelos",
    "slug": "wattrelos",
    "codeInsee": "59650",
    "codePostal": "59150",
    "population": 40847,
    "latitude": 50.7125,
    "longitude": 3.2159,
    "altitude": 30,
    "logements": 19925,
    "logementsMaison": 81,
    "prixM2Moyen": 1870,
    "vehiculesElectriques": 1458,
    "croissanceVE": 29,
    "bornesPubliques": 32,
    "intercommunalite": "Métropole Européenne de Lille (MEL)",
    "canton": "Wattrelos"
  },
  {
    "nom": "Douai",
    "slug": "douai",
    "codeInsee": "59178",
    "codePostal": "59500",
    "population": 40250,
    "latitude": 50.3785,
    "longitude": 3.1004,
    "altitude": 25,
    "logements": 19634,
    "logementsMaison": 91,
    "prixM2Moyen": 2130,
    "vehiculesElectriques": 1674,
    "croissanceVE": 24,
    "bornesPubliques": 31,
    "intercommunalite": "Communauté d'Agglomération du Douaisis (CAD)",
    "canton": "Douai"
  },
  {
    "nom": "Marcq-en-Barœul",
    "slug": "marcq-en-barul",
    "codeInsee": "59378",
    "codePostal": "59700",
    "population": 40184,
    "latitude": 50.6793,
    "longitude": 3.1006,
    "altitude": 28,
    "logements": 19602,
    "logementsMaison": 77,
    "prixM2Moyen": 1830,
    "vehiculesElectriques": 1684,
    "croissanceVE": 20,
    "bornesPubliques": 32,
    "intercommunalite": "Communauté de Communes du Pays de l'Avesnois",
    "canton": "Marcq-en-Barœul"
  },
  {
    "nom": "Cambrai",
    "slug": "cambrai",
    "codeInsee": "59122",
    "codePostal": "59400",
    "population": 31134,
    "latitude": 50.1722,
    "longitude": 3.2413,
    "altitude": 60,
    "logements": 14152,
    "logementsMaison": 82,
    "prixM2Moyen": 1980,
    "vehiculesElectriques": 913,
    "croissanceVE": 20,
    "bornesPubliques": 21,
    "intercommunalite": "Communauté d'Agglomération de Cambrai",
    "canton": "Cambrai"
  },
  {
    "nom": "Maubeuge",
    "slug": "maubeuge",
    "codeInsee": "59392",
    "codePostal": "59600",
    "population": 28767,
    "latitude": 50.2834,
    "longitude": 3.9611,
    "altitude": 130,
    "logements": 13076,
    "logementsMaison": 88,
    "prixM2Moyen": 2200,
    "vehiculesElectriques": 1101,
    "croissanceVE": 19,
    "bornesPubliques": 23,
    "intercommunalite": "Communauté d'Agglomération Maubeuge Val de Sambre",
    "canton": "Maubeuge"
  },
  {
    "nom": "Lambersart",
    "slug": "lambersart",
    "codeInsee": "59328",
    "codePostal": "59130",
    "population": 27090,
    "latitude": 50.6538,
    "longitude": 3.0248,
    "altitude": 36,
    "logements": 12314,
    "logementsMaison": 85,
    "prixM2Moyen": 3150,
    "vehiculesElectriques": 999,
    "croissanceVE": 18,
    "bornesPubliques": 20,
    "intercommunalite": "Métropole Européenne de Lille (MEL)",
    "canton": "Lambersart"
  },
  {
    "nom": "Armentières",
    "slug": "armentieres",
    "codeInsee": "59017",
    "codePostal": "59280",
    "population": 26998,
    "latitude": 50.6925,
    "longitude": 2.8787,
    "altitude": 20,
    "logements": 12272,
    "logementsMaison": 85,
    "prixM2Moyen": 2060,
    "vehiculesElectriques": 957,
    "croissanceVE": 27,
    "bornesPubliques": 18,
    "intercommunalite": "Métropole Européenne de Lille (MEL)",
    "canton": "Armentières"
  },
  {
    "nom": "Loos",
    "slug": "loos",
    "codeInsee": "59360",
    "codePostal": "59120",
    "population": 22567,
    "latitude": 50.6078,
    "longitude": 3.0215,
    "altitude": 27,
    "logements": 10258,
    "logementsMaison": 75,
    "prixM2Moyen": 1990,
    "vehiculesElectriques": 666,
    "croissanceVE": 26,
    "bornesPubliques": 18,
    "intercommunalite": "Métropole Européenne de Lille (MEL)",
    "canton": "Loos"
  },
  {
    "nom": "Hazebrouck",
    "slug": "hazebrouck",
    "codeInsee": "59295",
    "codePostal": "59190",
    "population": 21912,
    "latitude": 50.7254,
    "longitude": 2.5357,
    "altitude": 25,
    "logements": 9960,
    "logementsMaison": 78,
    "prixM2Moyen": 2180,
    "vehiculesElectriques": 681,
    "croissanceVE": 32,
    "bornesPubliques": 16,
    "intercommunalite": "Communauté de Communes de Flandre Intérieure (CCFI)",
    "canton": "Hazebrouck"
  },
  {
    "nom": "La Madeleine",
    "slug": "la-madeleine",
    "codeInsee": "59368",
    "codePostal": "59110",
    "population": 21790,
    "latitude": 50.6541,
    "longitude": 3.0699,
    "altitude": 35,
    "logements": 9905,
    "logementsMaison": 82,
    "prixM2Moyen": 3830,
    "vehiculesElectriques": 1047,
    "croissanceVE": 31,
    "bornesPubliques": 16,
    "intercommunalite": "Métropole Européenne de Lille (MEL)",
    "canton": "La Madeleine"
  },
  {
    "nom": "Mons-en-Barœul",
    "slug": "mons-en-barul",
    "codeInsee": "59410",
    "codePostal": "59370",
    "population": 21105,
    "latitude": 50.6436,
    "longitude": 3.1091,
    "altitude": 34,
    "logements": 9593,
    "logementsMaison": 76,
    "prixM2Moyen": 2230,
    "vehiculesElectriques": 617,
    "croissanceVE": 31,
    "bornesPubliques": 18,
    "intercommunalite": "Communauté de Communes du Pays de l'Avesnois",
    "canton": "Mons-en-Barœul"
  },
  {
    "nom": "Coudekerque-Branche",
    "slug": "coudekerque-branche",
    "codeInsee": "59155",
    "codePostal": "59210",
    "population": 20787,
    "latitude": 51.0183,
    "longitude": 2.3986,
    "altitude": 5,
    "logements": 9449,
    "logementsMaison": 79,
    "prixM2Moyen": 2330,
    "vehiculesElectriques": 672,
    "croissanceVE": 25,
    "bornesPubliques": 19,
    "intercommunalite": "Communauté Urbaine de Dunkerque (CUD)",
    "canton": "Coudekerque-Branche"
  },
  {
    "nom": "Wasquehal",
    "slug": "wasquehal",
    "codeInsee": "59646",
    "codePostal": "59290",
    "population": 20726,
    "latitude": 50.6726,
    "longitude": 3.1296,
    "altitude": 25,
    "logements": 9421,
    "logementsMaison": 75,
    "prixM2Moyen": 3240,
    "vehiculesElectriques": 831,
    "croissanceVE": 18,
    "bornesPubliques": 17,
    "intercommunalite": "Métropole Européenne de Lille (MEL)",
    "canton": "Wasquehal"
  },
  {
    "nom": "Halluin",
    "slug": "halluin",
    "codeInsee": "59279",
    "codePostal": "59250",
    "population": 20715,
    "latitude": 50.7759,
    "longitude": 3.1257,
    "altitude": 44,
    "logements": 9416,
    "logementsMaison": 83,
    "prixM2Moyen": 2140,
    "vehiculesElectriques": 756,
    "croissanceVE": 19,
    "bornesPubliques": 19,
    "intercommunalite": "Métropole Européenne de Lille (MEL)",
    "canton": "Halluin"
  },
  {
    "nom": "Denain",
    "slug": "denain",
    "codeInsee": "59172",
    "codePostal": "59220",
    "population": 20665,
    "latitude": 50.329,
    "longitude": 3.3922,
    "altitude": 35,
    "logements": 9393,
    "logementsMaison": 82,
    "prixM2Moyen": 1410,
    "vehiculesElectriques": 741,
    "croissanceVE": 18,
    "bornesPubliques": 17,
    "intercommunalite": "Communauté d'Agglomération de la Porte du Hainaut",
    "canton": "Denain"
  },
  {
    "nom": "Croix",
    "slug": "croix",
    "codeInsee": "59163",
    "codePostal": "59170",
    "population": 20566,
    "latitude": 50.6754,
    "longitude": 3.155,
    "altitude": 43,
    "logements": 9348,
    "logementsMaison": 79,
    "prixM2Moyen": 1680,
    "vehiculesElectriques": 551,
    "croissanceVE": 20,
    "bornesPubliques": 19,
    "intercommunalite": "Métropole Européenne de Lille (MEL)",
    "canton": "Croix"
  },
  {
    "nom": "Grande-Synthe",
    "slug": "grande-synthe",
    "codeInsee": "59271",
    "codePostal": "59760",
    "population": 20239,
    "latitude": 51.0157,
    "longitude": 2.2938,
    "altitude": 3,
    "logements": 9200,
    "logementsMaison": 42,
    "prixM2Moyen": 2340,
    "vehiculesElectriques": 688,
    "croissanceVE": 27,
    "bornesPubliques": 19,
    "intercommunalite": "Communauté Urbaine de Dunkerque (CUD)",
    "canton": "Grande-Synthe"
  },
  {
    "nom": "Ronchin",
    "slug": "ronchin",
    "codeInsee": "59507",
    "codePostal": "59790",
    "population": 19787,
    "latitude": 50.6034,
    "longitude": 3.0931,
    "altitude": 37,
    "logements": 8994,
    "logementsMaison": 81,
    "prixM2Moyen": 1820,
    "vehiculesElectriques": 744,
    "croissanceVE": 21,
    "bornesPubliques": 16,
    "intercommunalite": "Métropole Européenne de Lille (MEL)",
    "canton": "Ronchin"
  },
  {
    "nom": "Faches-Thumesnil",
    "slug": "faches-thumesnil",
    "codeInsee": "59220",
    "codePostal": "59155",
    "population": 18619,
    "latitude": 50.5956,
    "longitude": 3.0714,
    "altitude": 45,
    "logements": 8463,
    "logementsMaison": 76,
    "prixM2Moyen": 1810,
    "vehiculesElectriques": 681,
    "croissanceVE": 22,
    "bornesPubliques": 17,
    "intercommunalite": "Métropole Européenne de Lille (MEL)",
    "canton": "Faches-Thumesnil"
  },
  {
    "nom": "Hem",
    "slug": "hem",
    "codeInsee": "59299",
    "codePostal": "59510",
    "population": 18582,
    "latitude": 50.6531,
    "longitude": 3.1913,
    "altitude": 43,
    "logements": 8446,
    "logementsMaison": 76,
    "prixM2Moyen": 2100,
    "vehiculesElectriques": 719,
    "croissanceVE": 30,
    "bornesPubliques": 17,
    "intercommunalite": "Métropole Européenne de Lille (MEL)",
    "canton": "Hem"
  },
  {
    "nom": "Sin-le-Noble",
    "slug": "sin-le-noble",
    "codeInsee": "59569",
    "codePostal": "59450",
    "population": 16076,
    "latitude": 50.3672,
    "longitude": 3.1213,
    "altitude": 32,
    "logements": 7307,
    "logementsMaison": 88,
    "prixM2Moyen": 1860,
    "vehiculesElectriques": 487,
    "croissanceVE": 30,
    "bornesPubliques": 16,
    "intercommunalite": "Communauté d'Agglomération du Douaisis (CAD)",
    "canton": "Sin-le-Noble"
  },
  {
    "nom": "Saint-Amand-les-Eaux",
    "slug": "saint-amand-les-eaux",
    "codeInsee": "59526",
    "codePostal": "59230",
    "population": 15974,
    "latitude": 50.4382,
    "longitude": 3.4447,
    "altitude": 42,
    "logements": 7261,
    "logementsMaison": 76,
    "prixM2Moyen": 1630,
    "vehiculesElectriques": 558,
    "croissanceVE": 30,
    "bornesPubliques": 11,
    "intercommunalite": "Communauté d'Agglomération de Valenciennes Métropole",
    "canton": "Saint-Amand-les-Eaux"
  },
  {
    "nom": "Wattignies",
    "slug": "wattignies",
    "codeInsee": "59648",
    "codePostal": "59139",
    "population": 15525,
    "latitude": 50.5862,
    "longitude": 3.0389,
    "altitude": 39,
    "logements": 7057,
    "logementsMaison": 79,
    "prixM2Moyen": 1620,
    "vehiculesElectriques": 497,
    "croissanceVE": 24,
    "bornesPubliques": 14,
    "intercommunalite": "Métropole Européenne de Lille (MEL)",
    "canton": "Wattignies"
  },
  {
    "nom": "Haubourdin",
    "slug": "haubourdin",
    "codeInsee": "59286",
    "codePostal": "59320",
    "population": 15074,
    "latitude": 50.6002,
    "longitude": 2.9893,
    "altitude": 27,
    "logements": 6852,
    "logementsMaison": 79,
    "prixM2Moyen": 2400,
    "vehiculesElectriques": 519,
    "croissanceVE": 25,
    "bornesPubliques": 12,
    "intercommunalite": "Métropole Européenne de Lille (MEL)",
    "canton": "Haubourdin"
  },
  {
    "nom": "Bailleul",
    "slug": "bailleul",
    "codeInsee": "59043",
    "codePostal": "59270",
    "population": 14732,
    "latitude": 50.7325,
    "longitude": 2.7423,
    "altitude": 60,
    "logements": 6696,
    "logementsMaison": 82,
    "prixM2Moyen": 2000,
    "vehiculesElectriques": 400,
    "croissanceVE": 23,
    "bornesPubliques": 14,
    "intercommunalite": "Communauté de Communes de Flandre Intérieure (CCFI)",
    "canton": "Bailleul"
  },
  {
    "nom": "Hautmont",
    "slug": "hautmont",
    "codeInsee": "59291",
    "codePostal": "59330",
    "population": 14152,
    "latitude": 50.248,
    "longitude": 3.9204,
    "altitude": 160,
    "logements": 6433,
    "logementsMaison": 89,
    "prixM2Moyen": 1790,
    "vehiculesElectriques": 380,
    "croissanceVE": 28,
    "bornesPubliques": 12,
    "intercommunalite": "Communauté d'Agglomération Maubeuge Val de Sambre",
    "canton": "Hautmont"
  },
  {
    "nom": "Roncq",
    "slug": "roncq",
    "codeInsee": "59508",
    "codePostal": "59223",
    "population": 14075,
    "latitude": 50.7453,
    "longitude": 3.1152,
    "altitude": 44,
    "logements": 6398,
    "logementsMaison": 83,
    "prixM2Moyen": 2370,
    "vehiculesElectriques": 439,
    "croissanceVE": 22,
    "bornesPubliques": 13,
    "intercommunalite": "Métropole Européenne de Lille (MEL)",
    "canton": "Roncq"
  },
  {
    "nom": "Lys-lez-Lannoy",
    "slug": "lys-lez-lannoy",
    "codeInsee": "59367",
    "codePostal": "59390",
    "population": 14050,
    "latitude": 50.6729,
    "longitude": 3.2186,
    "altitude": 35,
    "logements": 6386,
    "logementsMaison": 82,
    "prixM2Moyen": 1810,
    "vehiculesElectriques": 484,
    "croissanceVE": 18,
    "bornesPubliques": 10,
    "intercommunalite": "Métropole Européenne de Lille (MEL)",
    "canton": "Lys-lez-Lannoy"
  },
  {
    "nom": "Caudry",
    "slug": "caudry",
    "codeInsee": "59139",
    "codePostal": "59540",
    "population": 13833,
    "latitude": 50.1191,
    "longitude": 3.4175,
    "altitude": 110,
    "logements": 6288,
    "logementsMaison": 87,
    "prixM2Moyen": 2030,
    "vehiculesElectriques": 385,
    "croissanceVE": 28,
    "bornesPubliques": 12,
    "intercommunalite": "Communauté d'Agglomération de Cambrai",
    "canton": "Caudry"
  },
  {
    "nom": "Mouvaux",
    "slug": "mouvaux",
    "codeInsee": "59421",
    "codePostal": "59420",
    "population": 13369,
    "latitude": 50.7044,
    "longitude": 3.1368,
    "altitude": 35,
    "logements": 6077,
    "logementsMaison": 83,
    "prixM2Moyen": 3240,
    "vehiculesElectriques": 457,
    "croissanceVE": 28,
    "bornesPubliques": 15,
    "intercommunalite": "Métropole Européenne de Lille (MEL)",
    "canton": "Mouvaux"
  },
  {
    "nom": "Seclin",
    "slug": "seclin",
    "codeInsee": "59560",
    "codePostal": "59113",
    "population": 13261,
    "latitude": 50.5453,
    "longitude": 3.0268,
    "altitude": 32,
    "logements": 6028,
    "logementsMaison": 76,
    "prixM2Moyen": 1600,
    "vehiculesElectriques": 389,
    "croissanceVE": 18,
    "bornesPubliques": 10,
    "intercommunalite": "Métropole Européenne de Lille (MEL)",
    "canton": "Seclin"
  },
  {
    "nom": "Saint-André-lez-Lille",
    "slug": "saint-andre-lez-lille",
    "codeInsee": "59527",
    "codePostal": "59350",
    "population": 13233,
    "latitude": 50.6599,
    "longitude": 3.0415,
    "altitude": 32,
    "logements": 6015,
    "logementsMaison": 83,
    "prixM2Moyen": 2260,
    "vehiculesElectriques": 550,
    "croissanceVE": 28,
    "bornesPubliques": 11,
    "intercommunalite": "Communauté de Communes du Pays de l'Avesnois",
    "canton": "Saint-André-lez-Lille"
  },
  {
    "nom": "Anzin",
    "slug": "anzin",
    "codeInsee": "59014",
    "codePostal": "59410",
    "population": 13183,
    "latitude": 50.376,
    "longitude": 3.5112,
    "altitude": 44,
    "logements": 5992,
    "logementsMaison": 85,
    "prixM2Moyen": 2040,
    "vehiculesElectriques": 412,
    "croissanceVE": 25,
    "bornesPubliques": 9,
    "intercommunalite": "Communauté d'Agglomération de Valenciennes Métropole",
    "canton": "Anzin"
  },
  {
    "nom": "Comines",
    "slug": "comines",
    "codeInsee": "59152",
    "codePostal": "59560",
    "population": 12731,
    "latitude": 50.7496,
    "longitude": 3.0136,
    "altitude": 43,
    "logements": 5787,
    "logementsMaison": 84,
    "prixM2Moyen": 1830,
    "vehiculesElectriques": 396,
    "croissanceVE": 21,
    "bornesPubliques": 9,
    "intercommunalite": "Métropole Européenne de Lille (MEL)",
    "canton": "Comines"
  },
  {
    "nom": "Marquette-lez-Lille",
    "slug": "marquette-lez-lille",
    "codeInsee": "59386",
    "codePostal": "59520",
    "population": 12622,
    "latitude": 50.6746,
    "longitude": 3.0539,
    "altitude": 45,
    "logements": 5737,
    "logementsMaison": 81,
    "prixM2Moyen": 2350,
    "vehiculesElectriques": 389,
    "croissanceVE": 21,
    "bornesPubliques": 10,
    "intercommunalite": "Communauté de Communes du Pays de l'Avesnois",
    "canton": "Marquette-lez-Lille"
  },
  {
    "nom": "Raismes",
    "slug": "raismes",
    "codeInsee": "59491",
    "codePostal": "59590",
    "population": 12199,
    "latitude": 50.4117,
    "longitude": 3.4886,
    "altitude": 25,
    "logements": 5545,
    "logementsMaison": 78,
    "prixM2Moyen": 1760,
    "vehiculesElectriques": 435,
    "croissanceVE": 24,
    "bornesPubliques": 9,
    "intercommunalite": "Communauté de Communes du Pays de l'Avesnois",
    "canton": "Raismes"
  },
  {
    "nom": "Marly",
    "slug": "marly",
    "codeInsee": "59383",
    "codePostal": "59770",
    "population": 11995,
    "latitude": 50.3464,
    "longitude": 3.5477,
    "altitude": 25,
    "logements": 5452,
    "logementsMaison": 90,
    "prixM2Moyen": 2220,
    "vehiculesElectriques": 365,
    "croissanceVE": 20,
    "bornesPubliques": 14,
    "intercommunalite": "Communauté d'Agglomération de Valenciennes Métropole",
    "canton": "Marly"
  },
  {
    "nom": "Somain",
    "slug": "somain",
    "codeInsee": "59574",
    "codePostal": "59490",
    "population": 11766,
    "latitude": 50.3595,
    "longitude": 3.2717,
    "altitude": 30,
    "logements": 5348,
    "logementsMaison": 88,
    "prixM2Moyen": 1130,
    "vehiculesElectriques": 283,
    "croissanceVE": 27,
    "bornesPubliques": 12,
    "intercommunalite": "Communauté d'Agglomération du Douaisis (CAD)",
    "canton": "Somain"
  },
  {
    "nom": "Bruay-sur-l'Escaut",
    "slug": "bruay-sur-l-escaut",
    "codeInsee": "59112",
    "codePostal": "59860",
    "population": 11644,
    "latitude": 50.3967,
    "longitude": 3.5382,
    "altitude": 33,
    "logements": 5293,
    "logementsMaison": 82,
    "prixM2Moyen": 1740,
    "vehiculesElectriques": 403,
    "croissanceVE": 32,
    "bornesPubliques": 12,
    "intercommunalite": "Communauté d'Agglomération de Valenciennes Métropole",
    "canton": "Bruay-sur-l'Escaut"
  },
  {
    "nom": "Fourmies",
    "slug": "fourmies",
    "codeInsee": "59249",
    "codePostal": "59610",
    "population": 11449,
    "latitude": 50.0064,
    "longitude": 4.0594,
    "altitude": 153,
    "logements": 5204,
    "logementsMaison": 85,
    "prixM2Moyen": 2320,
    "vehiculesElectriques": 352,
    "croissanceVE": 32,
    "bornesPubliques": 9,
    "intercommunalite": "Communauté de Communes du Pays de l'Avesnois",
    "canton": "Fourmies"
  },
  {
    "nom": "Gravelines",
    "slug": "gravelines",
    "codeInsee": "59273",
    "codePostal": "59820",
    "population": 11430,
    "latitude": 51.0029,
    "longitude": 2.1385,
    "altitude": 3,
    "logements": 5195,
    "logementsMaison": 82,
    "prixM2Moyen": 2220,
    "vehiculesElectriques": 352,
    "croissanceVE": 18,
    "bornesPubliques": 8,
    "intercommunalite": "Communauté Urbaine de Dunkerque (CUD)",
    "canton": "Gravelines"
  },
  {
    "nom": "Wambrechies",
    "slug": "wambrechies",
    "codeInsee": "59636",
    "codePostal": "59118",
    "population": 11012,
    "latitude": 50.6983,
    "longitude": 3.0449,
    "altitude": 33,
    "logements": 5005,
    "logementsMaison": 84,
    "prixM2Moyen": 1850,
    "vehiculesElectriques": 424,
    "croissanceVE": 29,
    "bornesPubliques": 8,
    "intercommunalite": "Métropole Européenne de Lille (MEL)",
    "canton": "Wambrechies"
  },
  {
    "nom": "Saint-Saulve",
    "slug": "saint-saulve",
    "codeInsee": "59544",
    "codePostal": "59880",
    "population": 10947,
    "latitude": 50.3797,
    "longitude": 3.5688,
    "altitude": 43,
    "logements": 4976,
    "logementsMaison": 87,
    "prixM2Moyen": 2080,
    "vehiculesElectriques": 337,
    "croissanceVE": 29,
    "bornesPubliques": 12,
    "intercommunalite": "Communauté d'Agglomération de Valenciennes Métropole",
    "canton": "Saint-Saulve"
  },
  {
    "nom": "Annœullin",
    "slug": "annullin",
    "codeInsee": "59011",
    "codePostal": "59112",
    "population": 10847,
    "latitude": 50.5275,
    "longitude": 2.9242,
    "altitude": 44,
    "logements": 4930,
    "logementsMaison": 79,
    "prixM2Moyen": 2330,
    "vehiculesElectriques": 321,
    "croissanceVE": 26,
    "bornesPubliques": 9,
    "intercommunalite": "Communauté de Communes du Pays de l'Avesnois",
    "canton": "Annœullin"
  },
  {
    "nom": "Vieux-Condé",
    "slug": "vieux-conde",
    "codeInsee": "59616",
    "codePostal": "59690",
    "population": 10617,
    "latitude": 50.4732,
    "longitude": 3.5614,
    "altitude": 44,
    "logements": 4826,
    "logementsMaison": 85,
    "prixM2Moyen": 2290,
    "vehiculesElectriques": 397,
    "croissanceVE": 21,
    "bornesPubliques": 9,
    "intercommunalite": "Communauté d'Agglomération de Valenciennes Métropole",
    "canton": "Vieux-Condé"
  },
  {
    "nom": "Jeumont",
    "slug": "jeumont",
    "codeInsee": "59324",
    "codePostal": "59460",
    "population": 10160,
    "latitude": 50.29,
    "longitude": 4.1026,
    "altitude": 28,
    "logements": 4618,
    "logementsMaison": 87,
    "prixM2Moyen": 1700,
    "vehiculesElectriques": 294,
    "croissanceVE": 27,
    "bornesPubliques": 12,
    "intercommunalite": "Communauté d'Agglomération Maubeuge Val de Sambre",
    "canton": "Jeumont"
  },
  {
    "nom": "Douchy-les-Mines",
    "slug": "douchy-les-mines",
    "codeInsee": "59179",
    "codePostal": "59282",
    "population": 10109,
    "latitude": 50.3005,
    "longitude": 3.3887,
    "altitude": 37,
    "logements": 4595,
    "logementsMaison": 91,
    "prixM2Moyen": 1410,
    "vehiculesElectriques": 273,
    "croissanceVE": 25,
    "bornesPubliques": 8,
    "intercommunalite": "Communauté d'Agglomération de la Porte du Hainaut",
    "canton": "Douchy-les-Mines"
  },
  {
    "nom": "Neuville-en-Ferrain",
    "slug": "neuville-en-ferrain",
    "codeInsee": "59426",
    "codePostal": "59960",
    "population": 10002,
    "latitude": 50.7559,
    "longitude": 3.1614,
    "altitude": 25,
    "logements": 4546,
    "logementsMaison": 76,
    "prixM2Moyen": 1920,
    "vehiculesElectriques": 343,
    "croissanceVE": 23,
    "bornesPubliques": 10,
    "intercommunalite": "Métropole Européenne de Lille (MEL)",
    "canton": "Neuville-en-Ferrain"
  },
  {
    "nom": "Aniche",
    "slug": "aniche",
    "codeInsee": "59008",
    "codePostal": "59580",
    "population": 9963,
    "latitude": 50.3301,
    "longitude": 3.2583,
    "altitude": 45,
    "logements": 4529,
    "logementsMaison": 89,
    "prixM2Moyen": 1450,
    "vehiculesElectriques": 260,
    "croissanceVE": 26,
    "bornesPubliques": 12,
    "intercommunalite": "Communauté d'Agglomération du Douaisis (CAD)",
    "canton": "Aniche"
  },
  {
    "nom": "Merville",
    "slug": "merville",
    "codeInsee": "59400",
    "codePostal": "59660",
    "population": 9808,
    "latitude": 50.6458,
    "longitude": 2.637,
    "altitude": 45,
    "logements": 4458,
    "logementsMaison": 80,
    "prixM2Moyen": 2170,
    "vehiculesElectriques": 289,
    "croissanceVE": 27,
    "bornesPubliques": 10,
    "intercommunalite": "Communauté de Communes de Flandre Intérieure (CCFI)",
    "canton": "Merville"
  },
  {
    "nom": "Bondues",
    "slug": "bondues",
    "codeInsee": "59090",
    "codePostal": "59910",
    "population": 9747,
    "latitude": 50.7062,
    "longitude": 3.1002,
    "altitude": 30,
    "logements": 4430,
    "logementsMaison": 76,
    "prixM2Moyen": 4630,
    "vehiculesElectriques": 400,
    "croissanceVE": 28,
    "bornesPubliques": 8,
    "intercommunalite": "Métropole Européenne de Lille (MEL)",
    "canton": "Bondues"
  },
  {
    "nom": "Lesquin",
    "slug": "lesquin",
    "codeInsee": "59343",
    "codePostal": "59810",
    "population": 9600,
    "latitude": 50.5904,
    "longitude": 3.1132,
    "altitude": 45,
    "logements": 4364,
    "logementsMaison": 79,
    "prixM2Moyen": 2110,
    "vehiculesElectriques": 362,
    "croissanceVE": 28,
    "bornesPubliques": 10,
    "intercommunalite": "Métropole Européenne de Lille (MEL)",
    "canton": "Lesquin"
  },
  {
    "nom": "Leers",
    "slug": "leers",
    "codeInsee": "59339",
    "codePostal": "59115",
    "population": 9521,
    "latitude": 50.6794,
    "longitude": 3.2398,
    "altitude": 45,
    "logements": 4328,
    "logementsMaison": 81,
    "prixM2Moyen": 2350,
    "vehiculesElectriques": 328,
    "croissanceVE": 30,
    "bornesPubliques": 8,
    "intercommunalite": "Métropole Européenne de Lille (MEL)",
    "canton": "Leers"
  },
  {
    "nom": "Condé-sur-l'Escaut",
    "slug": "conde-sur-l-escaut",
    "codeInsee": "59153",
    "codePostal": "59163",
    "population": 9253,
    "latitude": 50.4662,
    "longitude": 3.6113,
    "altitude": 26,
    "logements": 4206,
    "logementsMaison": 85,
    "prixM2Moyen": 1900,
    "vehiculesElectriques": 346,
    "croissanceVE": 21,
    "bornesPubliques": 8,
    "intercommunalite": "Communauté de Communes du Pays de l'Avesnois",
    "canton": "Condé-sur-l'Escaut"
  },
  {
    "nom": "Escaudain",
    "slug": "escaudain",
    "codeInsee": "59205",
    "codePostal": "59124",
    "population": 9039,
    "latitude": 50.333,
    "longitude": 3.3388,
    "altitude": 29,
    "logements": 4109,
    "logementsMaison": 86,
    "prixM2Moyen": 1810,
    "vehiculesElectriques": 360,
    "croissanceVE": 31,
    "bornesPubliques": 10,
    "intercommunalite": "Communauté d'Agglomération de la Porte du Hainaut",
    "canton": "Escaudain"
  },
  {
    "nom": "La Chapelle-d'Armentières",
    "slug": "la-chapelle-d-armentieres",
    "codeInsee": "59143",
    "codePostal": "59930",
    "population": 8754,
    "latitude": 50.6641,
    "longitude": 2.8944,
    "altitude": 25,
    "logements": 3979,
    "logementsMaison": 85,
    "prixM2Moyen": 1900,
    "vehiculesElectriques": 336,
    "croissanceVE": 25,
    "bornesPubliques": 10,
    "intercommunalite": "Communauté de Communes du Pays de l'Avesnois",
    "canton": "La Chapelle-d'Armentières"
  },
  {
    "nom": "Aulnoye-Aymeries",
    "slug": "aulnoye-aymeries",
    "codeInsee": "59033",
    "codePostal": "59620",
    "population": 8612,
    "latitude": 50.2036,
    "longitude": 3.8312,
    "altitude": 151,
    "logements": 3915,
    "logementsMaison": 90,
    "prixM2Moyen": 1430,
    "vehiculesElectriques": 237,
    "croissanceVE": 26,
    "bornesPubliques": 12,
    "intercommunalite": "Communauté d'Agglomération Maubeuge Val de Sambre",
    "canton": "Aulnoye-Aymeries"
  },
  {
    "nom": "Onnaing",
    "slug": "onnaing",
    "codeInsee": "59447",
    "codePostal": "59264",
    "population": 8479,
    "latitude": 50.3857,
    "longitude": 3.5972,
    "altitude": 44,
    "logements": 3854,
    "logementsMaison": 83,
    "prixM2Moyen": 1650,
    "vehiculesElectriques": 271,
    "croissanceVE": 22,
    "bornesPubliques": 7,
    "intercommunalite": "Communauté d'Agglomération de Valenciennes Métropole",
    "canton": "Onnaing"
  },
  {
    "nom": "Pérenchies",
    "slug": "perenchies",
    "codeInsee": "59457",
    "codePostal": "59840",
    "population": 8455,
    "latitude": 50.6708,
    "longitude": 2.9682,
    "altitude": 30,
    "logements": 3843,
    "logementsMaison": 76,
    "prixM2Moyen": 2280,
    "vehiculesElectriques": 280,
    "croissanceVE": 21,
    "bornesPubliques": 7,
    "intercommunalite": "Communauté de Communes du Pays de l'Avesnois",
    "canton": "Pérenchies"
  },
  {
    "nom": "Orchies",
    "slug": "orchies",
    "codeInsee": "59449",
    "codePostal": "59310",
    "population": 8396,
    "latitude": 50.4684,
    "longitude": 3.2398,
    "altitude": 41,
    "logements": 3816,
    "logementsMaison": 79,
    "prixM2Moyen": 2190,
    "vehiculesElectriques": 297,
    "croissanceVE": 19,
    "bornesPubliques": 10,
    "intercommunalite": "Communauté d'Agglomération du Douaisis (CAD)",
    "canton": "Orchies"
  },
  {
    "nom": "Téteghem-Coudekerque-Village",
    "slug": "teteghem-coudekerque-village",
    "codeInsee": "59588",
    "codePostal": "59229",
    "population": 8247,
    "latitude": 51.0092,
    "longitude": 2.4453,
    "altitude": 9,
    "logements": 3749,
    "logementsMaison": 80,
    "prixM2Moyen": 1650,
    "vehiculesElectriques": 299,
    "croissanceVE": 20,
    "bornesPubliques": 11,
    "intercommunalite": "Communauté de Communes du Pays de l'Avesnois",
    "canton": "Téteghem-Coudekerque-Village"
  },
  {
    "nom": "Linselles",
    "slug": "linselles",
    "codeInsee": "59352",
    "codePostal": "59126",
    "population": 8161,
    "latitude": 50.7367,
    "longitude": 3.0724,
    "altitude": 45,
    "logements": 3710,
    "logementsMaison": 85,
    "prixM2Moyen": 1750,
    "vehiculesElectriques": 300,
    "croissanceVE": 29,
    "bornesPubliques": 8,
    "intercommunalite": "Communauté de Communes du Pays de l'Avesnois",
    "canton": "Linselles"
  },
  {
    "nom": "Houplines",
    "slug": "houplines",
    "codeInsee": "59317",
    "codePostal": "59116",
    "population": 7921,
    "latitude": 50.6832,
    "longitude": 2.9271,
    "altitude": 31,
    "logements": 3600,
    "logementsMaison": 83,
    "prixM2Moyen": 1860,
    "vehiculesElectriques": 286,
    "croissanceVE": 24,
    "bornesPubliques": 8,
    "intercommunalite": "Communauté de Communes du Pays de l'Avesnois",
    "canton": "Houplines"
  },
  {
    "nom": "Cappelle-la-Grande",
    "slug": "cappelle-la-grande",
    "codeInsee": "59131",
    "codePostal": "59180",
    "population": 7839,
    "latitude": 50.9953,
    "longitude": 2.3716,
    "altitude": 2,
    "logements": 3563,
    "logementsMaison": 82,
    "prixM2Moyen": 1600,
    "vehiculesElectriques": 291,
    "croissanceVE": 24,
    "bornesPubliques": 8,
    "intercommunalite": "Communauté de Communes du Pays de l'Avesnois",
    "canton": "Cappelle-la-Grande"
  },
  {
    "nom": "Nieppe",
    "slug": "nieppe",
    "codeInsee": "59431",
    "codePostal": "59850",
    "population": 7764,
    "latitude": 50.697,
    "longitude": 2.8325,
    "altitude": 44,
    "logements": 3529,
    "logementsMaison": 79,
    "prixM2Moyen": 1640,
    "vehiculesElectriques": 221,
    "croissanceVE": 21,
    "bornesPubliques": 9,
    "intercommunalite": "Communauté de Communes de Flandre Intérieure (CCFI)",
    "canton": "Nieppe"
  },
  {
    "nom": "Wavrin",
    "slug": "wavrin",
    "codeInsee": "59653",
    "codePostal": "59136",
    "population": 7758,
    "latitude": 50.5735,
    "longitude": 2.9356,
    "altitude": 28,
    "logements": 3526,
    "logementsMaison": 83,
    "prixM2Moyen": 1690,
    "vehiculesElectriques": 253,
    "croissanceVE": 28,
    "bornesPubliques": 11,
    "intercommunalite": "Communauté de Communes du Pays de l'Avesnois",
    "canton": "Wavrin"
  },
  {
    "nom": "Fresnes-sur-Escaut",
    "slug": "fresnes-sur-escaut",
    "codeInsee": "59253",
    "codePostal": "59970",
    "population": 7354,
    "latitude": 50.4321,
    "longitude": 3.58,
    "altitude": 41,
    "logements": 3343,
    "logementsMaison": 81,
    "prixM2Moyen": 2130,
    "vehiculesElectriques": 233,
    "croissanceVE": 22,
    "bornesPubliques": 7,
    "intercommunalite": "Communauté d'Agglomération de Valenciennes Métropole",
    "canton": "Fresnes-sur-Escaut"
  },
  {
    "nom": "Waziers",
    "slug": "waziers",
    "codeInsee": "59654",
    "codePostal": "59119",
    "population": 7266,
    "latitude": 50.3841,
    "longitude": 3.1121,
    "altitude": 29,
    "logements": 3303,
    "logementsMaison": 82,
    "prixM2Moyen": 2390,
    "vehiculesElectriques": 279,
    "croissanceVE": 25,
    "bornesPubliques": 11,
    "intercommunalite": "Communauté d'Agglomération du Douaisis (CAD)",
    "canton": "Waziers"
  },
  {
    "nom": "Templeuve-en-Pévèle",
    "slug": "templeuve-en-pevele",
    "codeInsee": "59586",
    "codePostal": "59242",
    "population": 7202,
    "latitude": 50.5322,
    "longitude": 3.1716,
    "altitude": 27,
    "logements": 3274,
    "logementsMaison": 77,
    "prixM2Moyen": 2040,
    "vehiculesElectriques": 288,
    "croissanceVE": 30,
    "bornesPubliques": 7,
    "intercommunalite": "Communauté de Communes du Pays de l'Avesnois",
    "canton": "Templeuve-en-Pévèle"
  },
  {
    "nom": "Auby",
    "slug": "auby",
    "codeInsee": "59028",
    "codePostal": "59950",
    "population": 7083,
    "latitude": 50.4143,
    "longitude": 3.0612,
    "altitude": 45,
    "logements": 3220,
    "logementsMaison": 75,
    "prixM2Moyen": 2060,
    "vehiculesElectriques": 269,
    "croissanceVE": 29,
    "bornesPubliques": 9,
    "intercommunalite": "Communauté d'Agglomération du Douaisis (CAD)",
    "canton": "Auby"
  },
  {
    "nom": "Aulnoy-lez-Valenciennes",
    "slug": "aulnoy-lez-valenciennes",
    "codeInsee": "59032",
    "codePostal": "59300",
    "population": 7080,
    "latitude": 50.3246,
    "longitude": 3.5362,
    "altitude": 26,
    "logements": 3218,
    "logementsMaison": 89,
    "prixM2Moyen": 1730,
    "vehiculesElectriques": 220,
    "croissanceVE": 26,
    "bornesPubliques": 8,
    "intercommunalite": "Communauté d'Agglomération de Valenciennes Métropole",
    "canton": "Valenciennes"
  },
  {
    "nom": "Bourbourg",
    "slug": "bourbourg",
    "codeInsee": "59094",
    "codePostal": "59630",
    "population": 6931,
    "latitude": 50.9422,
    "longitude": 2.2034,
    "altitude": 13,
    "logements": 3150,
    "logementsMaison": 75,
    "prixM2Moyen": 1610,
    "vehiculesElectriques": 175,
    "croissanceVE": 21,
    "bornesPubliques": 9,
    "intercommunalite": "Communauté de Communes du Pays de l'Avesnois",
    "canton": "Bourbourg"
  },
  {
    "nom": "Quesnoy-sur-Deûle",
    "slug": "quesnoy-sur-deule",
    "codeInsee": "59482",
    "codePostal": "59890",
    "population": 6805,
    "latitude": 50.713,
    "longitude": 3.0063,
    "altitude": 30,
    "logements": 3093,
    "logementsMaison": 83,
    "prixM2Moyen": 2320,
    "vehiculesElectriques": 285,
    "croissanceVE": 21,
    "bornesPubliques": 7,
    "intercommunalite": "Communauté de Communes du Pays de l'Avesnois",
    "canton": "Quesnoy-sur-Deûle"
  },
  {
    "nom": "Beuvrages",
    "slug": "beuvrages",
    "codeInsee": "59079",
    "codePostal": "59192",
    "population": 6796,
    "latitude": 50.3887,
    "longitude": 3.5043,
    "altitude": 40,
    "logements": 3089,
    "logementsMaison": 89,
    "prixM2Moyen": 1760,
    "vehiculesElectriques": 231,
    "croissanceVE": 21,
    "bornesPubliques": 6,
    "intercommunalite": "Communauté de Communes du Pays de l'Avesnois",
    "canton": "Beuvrages"
  },
  {
    "nom": "Le Cateau-Cambrésis",
    "slug": "le-cateau-cambresis",
    "codeInsee": "59136",
    "codePostal": "59360",
    "population": 6764,
    "latitude": 50.0873,
    "longitude": 3.5354,
    "altitude": 44,
    "logements": 3075,
    "logementsMaison": 90,
    "prixM2Moyen": 1920,
    "vehiculesElectriques": 208,
    "croissanceVE": 23,
    "bornesPubliques": 9,
    "intercommunalite": "Communauté de Communes du Pays de l'Avesnois",
    "canton": "Le Cateau-Cambrésis"
  },
  {
    "nom": "Feignies",
    "slug": "feignies",
    "codeInsee": "59225",
    "codePostal": "59750",
    "population": 6703,
    "latitude": 50.291,
    "longitude": 3.9119,
    "altitude": 37,
    "logements": 3047,
    "logementsMaison": 85,
    "prixM2Moyen": 1600,
    "vehiculesElectriques": 184,
    "croissanceVE": 32,
    "bornesPubliques": 6,
    "intercommunalite": "Communauté d'Agglomération Maubeuge Val de Sambre",
    "canton": "Feignies"
  },
  {
    "nom": "La Bassée",
    "slug": "la-bassee",
    "codeInsee": "59051",
    "codePostal": "59480",
    "population": 6650,
    "latitude": 50.5393,
    "longitude": 2.8103,
    "altitude": 38,
    "logements": 3023,
    "logementsMaison": 83,
    "prixM2Moyen": 1860,
    "vehiculesElectriques": 204,
    "croissanceVE": 28,
    "bornesPubliques": 11,
    "intercommunalite": "Communauté de Communes du Pays de l'Avesnois",
    "canton": "La Bassée"
  },
  {
    "nom": "Estaires",
    "slug": "estaires",
    "codeInsee": "59212",
    "codePostal": "59940",
    "population": 6525,
    "latitude": 50.6576,
    "longitude": 2.7221,
    "altitude": 45,
    "logements": 2966,
    "logementsMaison": 78,
    "prixM2Moyen": 2260,
    "vehiculesElectriques": 229,
    "croissanceVE": 24,
    "bornesPubliques": 8,
    "intercommunalite": "Communauté de Communes de Flandre Intérieure (CCFI)",
    "canton": "Estaires"
  },
  {
    "nom": "Cuincy",
    "slug": "cuincy",
    "codeInsee": "59165",
    "codePostal": "59553",
    "population": 6467,
    "latitude": 50.3746,
    "longitude": 3.0313,
    "altitude": 43,
    "logements": 2940,
    "logementsMaison": 84,
    "prixM2Moyen": 1710,
    "vehiculesElectriques": 248,
    "croissanceVE": 31,
    "bornesPubliques": 11,
    "intercommunalite": "Communauté d'Agglomération du Douaisis (CAD)",
    "canton": "Cuincy"
  },
  {
    "nom": "Louvroil",
    "slug": "louvroil",
    "codeInsee": "59365",
    "codePostal": "59720",
    "population": 6294,
    "latitude": 50.2597,
    "longitude": 3.9517,
    "altitude": 35,
    "logements": 2861,
    "logementsMaison": 89,
    "prixM2Moyen": 2020,
    "vehiculesElectriques": 182,
    "croissanceVE": 25,
    "bornesPubliques": 6,
    "intercommunalite": "Communauté d'Agglomération Maubeuge Val de Sambre",
    "canton": "Louvroil"
  },
  {
    "nom": "Lallaing",
    "slug": "lallaing",
    "codeInsee": "59327",
    "codePostal": "59167",
    "population": 6287,
    "latitude": 50.3868,
    "longitude": 3.1719,
    "altitude": 33,
    "logements": 2858,
    "logementsMaison": 91,
    "prixM2Moyen": 1940,
    "vehiculesElectriques": 203,
    "croissanceVE": 18,
    "bornesPubliques": 8,
    "intercommunalite": "Communauté de Communes du Pays de l'Avesnois",
    "canton": "Lallaing"
  },
  {
    "nom": "Ostricourt",
    "slug": "ostricourt",
    "codeInsee": "59452",
    "codePostal": "59162",
    "population": 6097,
    "latitude": 50.4572,
    "longitude": 3.033,
    "altitude": 26,
    "logements": 2771,
    "logementsMaison": 84,
    "prixM2Moyen": 1660,
    "vehiculesElectriques": 157,
    "croissanceVE": 27,
    "bornesPubliques": 5,
    "intercommunalite": "Communauté de Communes du Pays de l'Avesnois",
    "canton": "Ostricourt"
  },
  {
    "nom": "Pecquencourt",
    "slug": "pecquencourt",
    "codeInsee": "59456",
    "codePostal": "59146",
    "population": 6092,
    "latitude": 50.3755,
    "longitude": 3.2197,
    "altitude": 35,
    "logements": 2769,
    "logementsMaison": 87,
    "prixM2Moyen": 2250,
    "vehiculesElectriques": 203,
    "croissanceVE": 23,
    "bornesPubliques": 5,
    "intercommunalite": "Communauté de Communes du Pays de l'Avesnois",
    "canton": "Pecquencourt"
  },
  {
    "nom": "Trith-Saint-Léger",
    "slug": "trith-saint-leger",
    "codeInsee": "59603",
    "codePostal": "59125",
    "population": 6019,
    "latitude": 50.3295,
    "longitude": 3.4879,
    "altitude": 35,
    "logements": 2736,
    "logementsMaison": 90,
    "prixM2Moyen": 2300,
    "vehiculesElectriques": 213,
    "croissanceVE": 20,
    "bornesPubliques": 8,
    "intercommunalite": "Communauté de Communes du Pays de l'Avesnois",
    "canton": "Trith-Saint-Léger"
  },
  {
    "nom": "Roost-Warendin",
    "slug": "roost-warendin",
    "codeInsee": "59509",
    "codePostal": "59286",
    "population": 5956,
    "latitude": 50.4127,
    "longitude": 3.0981,
    "altitude": 31,
    "logements": 2707,
    "logementsMaison": 74,
    "prixM2Moyen": 2100,
    "vehiculesElectriques": 202,
    "croissanceVE": 29,
    "bornesPubliques": 7,
    "intercommunalite": "Communauté d'Agglomération du Douaisis (CAD)",
    "canton": "Roost-Warendin"
  },
  {
    "nom": "Loon-Plage",
    "slug": "loon-plage",
    "codeInsee": "59359",
    "codePostal": "59279",
    "population": 5952,
    "latitude": 51.0018,
    "longitude": 2.2183,
    "altitude": 2,
    "logements": 2705,
    "logementsMaison": 84,
    "prixM2Moyen": 2260,
    "vehiculesElectriques": 175,
    "croissanceVE": 26,
    "bornesPubliques": 7,
    "intercommunalite": "Communauté Urbaine de Dunkerque (CUD)",
    "canton": "Loon-Plage"
  },
  {
    "nom": "Quiévrechain",
    "slug": "quievrechain",
    "codeInsee": "59484",
    "codePostal": "59920",
    "population": 5949,
    "latitude": 50.3945,
    "longitude": 3.6583,
    "altitude": 41,
    "logements": 2704,
    "logementsMaison": 85,
    "prixM2Moyen": 1850,
    "vehiculesElectriques": 219,
    "croissanceVE": 20,
    "bornesPubliques": 5,
    "intercommunalite": "Communauté d'Agglomération de Valenciennes Métropole",
    "canton": "Quiévrechain"
  },
  {
    "nom": "Flines-lez-Raches",
    "slug": "flines-lez-raches",
    "codeInsee": "59239",
    "codePostal": "59148",
    "population": 5745,
    "latitude": 50.4158,
    "longitude": 3.1833,
    "altitude": 42,
    "logements": 2611,
    "logementsMaison": 74,
    "prixM2Moyen": 2150,
    "vehiculesElectriques": 191,
    "croissanceVE": 28,
    "bornesPubliques": 9,
    "intercommunalite": "Communauté de Communes du Pays de l'Avesnois",
    "canton": "Flines-lez-Raches"
  },
  {
    "nom": "Santes",
    "slug": "santes",
    "codeInsee": "59553",
    "codePostal": "59211",
    "population": 5652,
    "latitude": 50.588,
    "longitude": 2.9561,
    "altitude": 43,
    "logements": 2569,
    "logementsMaison": 74,
    "prixM2Moyen": 2020,
    "vehiculesElectriques": 210,
    "croissanceVE": 19,
    "bornesPubliques": 7,
    "intercommunalite": "Communauté de Communes du Pays de l'Avesnois",
    "canton": "Santes"
  },
  {
    "nom": "Sainghin-en-Weppes",
    "slug": "sainghin-en-weppes",
    "codeInsee": "59524",
    "codePostal": "59184",
    "population": 5638,
    "latitude": 50.5564,
    "longitude": 2.8972,
    "altitude": 26,
    "logements": 2563,
    "logementsMaison": 84,
    "prixM2Moyen": 2260,
    "vehiculesElectriques": 222,
    "croissanceVE": 29,
    "bornesPubliques": 9,
    "intercommunalite": "Communauté de Communes du Pays de l'Avesnois",
    "canton": "Sainghin-en-Weppes"
  },
  {
    "nom": "Wallers",
    "slug": "wallers",
    "codeInsee": "59632",
    "codePostal": "59135",
    "population": 5633,
    "latitude": 50.3745,
    "longitude": 3.3944,
    "altitude": 33,
    "logements": 2560,
    "logementsMaison": 91,
    "prixM2Moyen": 2310,
    "vehiculesElectriques": 172,
    "croissanceVE": 29,
    "bornesPubliques": 9,
    "intercommunalite": "Communauté d'Agglomération de la Porte du Hainaut",
    "canton": "Wallers"
  },
  {
    "nom": "La Gorgue",
    "slug": "la-gorgue",
    "codeInsee": "59268",
    "codePostal": "59253",
    "population": 5616,
    "latitude": 50.6278,
    "longitude": 2.7371,
    "altitude": 37,
    "logements": 2553,
    "logementsMaison": 81,
    "prixM2Moyen": 2040,
    "vehiculesElectriques": 155,
    "croissanceVE": 21,
    "bornesPubliques": 6,
    "intercommunalite": "Communauté de Communes du Pays de l'Avesnois",
    "canton": "La Gorgue"
  },
  {
    "nom": "Wormhout",
    "slug": "wormhout",
    "codeInsee": "59663",
    "codePostal": "59470",
    "population": 5584,
    "latitude": 50.8749,
    "longitude": 2.4813,
    "altitude": 52,
    "logements": 2538,
    "logementsMaison": 79,
    "prixM2Moyen": 1850,
    "vehiculesElectriques": 215,
    "croissanceVE": 25,
    "bornesPubliques": 6,
    "intercommunalite": "Communauté de Communes du Pays de l'Avesnois",
    "canton": "Wormhout"
  },
  {
    "nom": "Baisieux",
    "slug": "baisieux",
    "codeInsee": "59044",
    "codePostal": "59780",
    "population": 5545,
    "latitude": 50.6101,
    "longitude": 3.2379,
    "altitude": 35,
    "logements": 2520,
    "logementsMaison": 80,
    "prixM2Moyen": 1910,
    "vehiculesElectriques": 182,
    "croissanceVE": 22,
    "bornesPubliques": 5,
    "intercommunalite": "Métropole Européenne de Lille (MEL)",
    "canton": "Baisieux"
  },
  {
    "nom": "Fenain",
    "slug": "fenain",
    "codeInsee": "59227",
    "codePostal": "59179",
    "population": 5441,
    "latitude": 50.3656,
    "longitude": 3.2998,
    "altitude": 39,
    "logements": 2473,
    "logementsMaison": 90,
    "prixM2Moyen": 2260,
    "vehiculesElectriques": 216,
    "croissanceVE": 20,
    "bornesPubliques": 6,
    "intercommunalite": "Communauté de Communes du Pays de l'Avesnois",
    "canton": "Fenain"
  },
  {
    "nom": "Wervicq-Sud",
    "slug": "wervicq-sud",
    "codeInsee": "59656",
    "codePostal": "59117",
    "population": 5426,
    "latitude": 50.7602,
    "longitude": 3.0495,
    "altitude": 29,
    "logements": 2466,
    "logementsMaison": 82,
    "prixM2Moyen": 1990,
    "vehiculesElectriques": 201,
    "croissanceVE": 18,
    "bornesPubliques": 9,
    "intercommunalite": "Communauté de Communes du Pays de l'Avesnois",
    "canton": "Wervicq-Sud"
  },
  {
    "nom": "Flers-en-Escrebieux",
    "slug": "flers-en-escrebieux",
    "codeInsee": "59234",
    "codePostal": "59128",
    "population": 5424,
    "latitude": 50.4025,
    "longitude": 3.0497,
    "altitude": 30,
    "logements": 2465,
    "logementsMaison": 84,
    "prixM2Moyen": 2350,
    "vehiculesElectriques": 192,
    "croissanceVE": 30,
    "bornesPubliques": 9,
    "intercommunalite": "Communauté d'Agglomération du Douaisis (CAD)",
    "canton": "Flers-en-Escrebieux"
  },
  {
    "nom": "Erquinghem-Lys",
    "slug": "erquinghem-lys",
    "codeInsee": "59202",
    "codePostal": "59193",
    "population": 5341,
    "latitude": 50.6691,
    "longitude": 2.8403,
    "altitude": 40,
    "logements": 2428,
    "logementsMaison": 80,
    "prixM2Moyen": 2060,
    "vehiculesElectriques": 165,
    "croissanceVE": 23,
    "bornesPubliques": 7,
    "intercommunalite": "Communauté de Communes du Pays de l'Avesnois",
    "canton": "Erquinghem-Lys"
  },
  {
    "nom": "Dechy",
    "slug": "dechy",
    "codeInsee": "59170",
    "codePostal": "59187",
    "population": 5338,
    "latitude": 50.3523,
    "longitude": 3.1288,
    "altitude": 34,
    "logements": 2426,
    "logementsMaison": 86,
    "prixM2Moyen": 2360,
    "vehiculesElectriques": 222,
    "croissanceVE": 29,
    "bornesPubliques": 10,
    "intercommunalite": "Communauté de Communes du Pays de l'Avesnois",
    "canton": "Dechy"
  },
  {
    "nom": "Bauvin",
    "slug": "bauvin",
    "codeInsee": "59052",
    "codePostal": "59221",
    "population": 5249,
    "latitude": 50.5173,
    "longitude": 2.8932,
    "altitude": 40,
    "logements": 2386,
    "logementsMaison": 77,
    "prixM2Moyen": 1890,
    "vehiculesElectriques": 144,
    "croissanceVE": 25,
    "bornesPubliques": 10,
    "intercommunalite": "Communauté de Communes du Pays de l'Avesnois",
    "canton": "Bauvin"
  },
  {
    "nom": "Ferrière-la-Grande",
    "slug": "ferriere-la-grande",
    "codeInsee": "59230",
    "codePostal": "59680",
    "population": 5131,
    "latitude": 50.2438,
    "longitude": 3.9894,
    "altitude": 163,
    "logements": 2332,
    "logementsMaison": 85,
    "prixM2Moyen": 2160,
    "vehiculesElectriques": 205,
    "croissanceVE": 24,
    "bornesPubliques": 9,
    "intercommunalite": "Communauté de Communes du Pays de l'Avesnois",
    "canton": "Ferrière-la-Grande"
  },
  {
    "nom": "Petite-Forêt",
    "slug": "petite-foret",
    "codeInsee": "59459",
    "codePostal": "59494",
    "population": 5054,
    "latitude": 50.3761,
    "longitude": 3.4773,
    "altitude": 25,
    "logements": 2297,
    "logementsMaison": 87,
    "prixM2Moyen": 1690,
    "vehiculesElectriques": 146,
    "croissanceVE": 29,
    "bornesPubliques": 9,
    "intercommunalite": "Communauté de Communes du Pays de l'Avesnois",
    "canton": "Petite-Forêt"
  },
  {
    "nom": "Bousbecque",
    "slug": "bousbecque",
    "codeInsee": "59098",
    "codePostal": "59166",
    "population": 4978,
    "latitude": 50.7646,
    "longitude": 3.0782,
    "altitude": 44,
    "logements": 2263,
    "logementsMaison": 84,
    "prixM2Moyen": 2390,
    "vehiculesElectriques": 163,
    "croissanceVE": 19,
    "bornesPubliques": 9,
    "intercommunalite": "Communauté de Communes du Pays de l'Avesnois",
    "canton": "Bousbecque"
  },
  {
    "nom": "Grand-Fort-Philippe",
    "slug": "grand-fort-philippe",
    "codeInsee": "59272",
    "codePostal": "59153",
    "population": 4887,
    "latitude": 51.0016,
    "longitude": 2.1049,
    "altitude": 10,
    "logements": 2221,
    "logementsMaison": 84,
    "prixM2Moyen": 1660,
    "vehiculesElectriques": 179,
    "croissanceVE": 29,
    "bornesPubliques": 9,
    "intercommunalite": "Communauté de Communes du Pays de l'Avesnois",
    "canton": "Grand-Fort-Philippe"
  },
  {
    "nom": "Lambres-lez-Douai",
    "slug": "lambres-lez-douai",
    "codeInsee": "59329",
    "codePostal": "59552",
    "population": 4883,
    "latitude": 50.3548,
    "longitude": 3.0542,
    "altitude": 44,
    "logements": 2220,
    "logementsMaison": 90,
    "prixM2Moyen": 1870,
    "vehiculesElectriques": 185,
    "croissanceVE": 21,
    "bornesPubliques": 10,
    "intercommunalite": "Communauté de Communes du Pays de l'Avesnois",
    "canton": "Lambres-lez-Douai"
  },
  {
    "nom": "Le Quesnoy",
    "slug": "le-quesnoy",
    "codeInsee": "59481",
    "codePostal": "59530",
    "population": 4878,
    "latitude": 50.2493,
    "longitude": 3.6234,
    "altitude": 166,
    "logements": 2217,
    "logementsMaison": 87,
    "prixM2Moyen": 2320,
    "vehiculesElectriques": 169,
    "croissanceVE": 24,
    "bornesPubliques": 5,
    "intercommunalite": "Communauté de Communes du Pays de l'Avesnois",
    "canton": "Le Quesnoy"
  },
  {
    "nom": "Phalempin",
    "slug": "phalempin",
    "codeInsee": "59462",
    "codePostal": "59133",
    "population": 4847,
    "latitude": 50.5113,
    "longitude": 3.0206,
    "altitude": 36,
    "logements": 2203,
    "logementsMaison": 82,
    "prixM2Moyen": 1810,
    "vehiculesElectriques": 171,
    "croissanceVE": 32,
    "bornesPubliques": 9,
    "intercommunalite": "Communauté de Communes du Pays de l'Avesnois",
    "canton": "Phalempin"
  },
  {
    "nom": "Cysoing",
    "slug": "cysoing",
    "codeInsee": "59168",
    "codePostal": "59830",
    "population": 4839,
    "latitude": 50.5632,
    "longitude": 3.2082,
    "altitude": 39,
    "logements": 2200,
    "logementsMaison": 76,
    "prixM2Moyen": 2190,
    "vehiculesElectriques": 189,
    "croissanceVE": 20,
    "bornesPubliques": 9,
    "intercommunalite": "Communauté de Communes du Pays de l'Avesnois",
    "canton": "Cysoing"
  },
  {
    "nom": "Hallennes-lez-Haubourdin",
    "slug": "hallennes-lez-haubourdin",
    "codeInsee": "59278",
    "codePostal": "59320",
    "population": 4683,
    "latitude": 50.6131,
    "longitude": 2.9553,
    "altitude": 36,
    "logements": 2129,
    "logementsMaison": 78,
    "prixM2Moyen": 1860,
    "vehiculesElectriques": 126,
    "croissanceVE": 22,
    "bornesPubliques": 5,
    "intercommunalite": "Communauté de Communes du Pays de l'Avesnois",
    "canton": "Hallennes-lez-Haubourdin"
  },
  {
    "nom": "Sequedin",
    "slug": "sequedin",
    "codeInsee": "59566",
    "codePostal": "59320",
    "population": 4675,
    "latitude": 50.6252,
    "longitude": 2.9887,
    "altitude": 25,
    "logements": 2125,
    "logementsMaison": 82,
    "prixM2Moyen": 2120,
    "vehiculesElectriques": 163,
    "croissanceVE": 29,
    "bornesPubliques": 5,
    "intercommunalite": "Communauté de Communes du Pays de l'Avesnois",
    "canton": "Sequedin"
  },
  {
    "nom": "Guesnain",
    "slug": "guesnain",
    "codeInsee": "59276",
    "codePostal": "59287",
    "population": 4635,
    "latitude": 50.3486,
    "longitude": 3.148,
    "altitude": 29,
    "logements": 2107,
    "logementsMaison": 91,
    "prixM2Moyen": 2130,
    "vehiculesElectriques": 175,
    "croissanceVE": 28,
    "bornesPubliques": 5,
    "intercommunalite": "Communauté d'Agglomération du Douaisis (CAD)",
    "canton": "Guesnain"
  },
  {
    "nom": "Auberchicourt",
    "slug": "auberchicourt",
    "codeInsee": "59024",
    "codePostal": "59165",
    "population": 4626,
    "latitude": 50.3308,
    "longitude": 3.227,
    "altitude": 44,
    "logements": 2103,
    "logementsMaison": 91,
    "prixM2Moyen": 2400,
    "vehiculesElectriques": 169,
    "croissanceVE": 21,
    "bornesPubliques": 7,
    "intercommunalite": "Communauté de Communes du Pays de l'Avesnois",
    "canton": "Auberchicourt"
  },
  {
    "nom": "Crespin",
    "slug": "crespin",
    "codeInsee": "59160",
    "codePostal": "59154",
    "population": 4532,
    "latitude": 50.4211,
    "longitude": 3.6507,
    "altitude": 34,
    "logements": 2060,
    "logementsMaison": 84,
    "prixM2Moyen": 1800,
    "vehiculesElectriques": 128,
    "croissanceVE": 27,
    "bornesPubliques": 5,
    "intercommunalite": "Communauté de Communes du Pays de l'Avesnois",
    "canton": "Crespin"
  },
  {
    "nom": "Marchiennes",
    "slug": "marchiennes",
    "codeInsee": "59375",
    "codePostal": "59870",
    "population": 4507,
    "latitude": 50.4128,
    "longitude": 3.2482,
    "altitude": 42,
    "logements": 2049,
    "logementsMaison": 75,
    "prixM2Moyen": 1740,
    "vehiculesElectriques": 161,
    "croissanceVE": 19,
    "bornesPubliques": 8,
    "intercommunalite": "Communauté de Communes du Pays de l'Avesnois",
    "canton": "Marchiennes"
  },
  {
    "nom": "Montigny-en-Ostrevent",
    "slug": "montigny-en-ostrevent",
    "codeInsee": "59414",
    "codePostal": "59182",
    "population": 4495,
    "latitude": 50.3685,
    "longitude": 3.1833,
    "altitude": 39,
    "logements": 2043,
    "logementsMaison": 83,
    "prixM2Moyen": 2250,
    "vehiculesElectriques": 132,
    "croissanceVE": 31,
    "bornesPubliques": 9,
    "intercommunalite": "Communauté de Communes du Pays de l'Avesnois",
    "canton": "Montigny-en-Ostrevent"
  },
  {
    "nom": "Hergnies",
    "slug": "hergnies",
    "codeInsee": "59301",
    "codePostal": "59199",
    "population": 4479,
    "latitude": 50.4786,
    "longitude": 3.5278,
    "altitude": 45,
    "logements": 2036,
    "logementsMaison": 77,
    "prixM2Moyen": 2140,
    "vehiculesElectriques": 148,
    "croissanceVE": 21,
    "bornesPubliques": 10,
    "intercommunalite": "Communauté de Communes du Pays de l'Avesnois",
    "canton": "Hergnies"
  },
  {
    "nom": "Provin",
    "slug": "provin",
    "codeInsee": "59477",
    "codePostal": "59185",
    "population": 4428,
    "latitude": 50.5158,
    "longitude": 2.9107,
    "altitude": 36,
    "logements": 2013,
    "logementsMaison": 78,
    "prixM2Moyen": 1780,
    "vehiculesElectriques": 130,
    "croissanceVE": 20,
    "bornesPubliques": 9,
    "intercommunalite": "Communauté de Communes du Pays de l'Avesnois",
    "canton": "Provin"
  },
  {
    "nom": "Steenvoorde",
    "slug": "steenvoorde",
    "codeInsee": "59580",
    "codePostal": "59114",
    "population": 4332,
    "latitude": 50.8225,
    "longitude": 2.5762,
    "altitude": 52,
    "logements": 1969,
    "logementsMaison": 82,
    "prixM2Moyen": 2350,
    "vehiculesElectriques": 140,
    "croissanceVE": 18,
    "bornesPubliques": 8,
    "intercommunalite": "Communauté de Communes du Pays de l'Avesnois",
    "canton": "Steenvoorde"
  },
  {
    "nom": "Escautpont",
    "slug": "escautpont",
    "codeInsee": "59207",
    "codePostal": "59278",
    "population": 4202,
    "latitude": 50.424,
    "longitude": 3.5513,
    "altitude": 30,
    "logements": 1910,
    "logementsMaison": 76,
    "prixM2Moyen": 1650,
    "vehiculesElectriques": 159,
    "croissanceVE": 25,
    "bornesPubliques": 8,
    "intercommunalite": "Communauté de Communes du Pays de l'Avesnois",
    "canton": "Escautpont"
  },
  {
    "nom": "Bray-Dunes",
    "slug": "bray-dunes",
    "codeInsee": "59107",
    "codePostal": "59123",
    "population": 4189,
    "latitude": 51.0747,
    "longitude": 2.5267,
    "altitude": 11,
    "logements": 1904,
    "logementsMaison": 78,
    "prixM2Moyen": 2020,
    "vehiculesElectriques": 135,
    "croissanceVE": 28,
    "bornesPubliques": 8,
    "intercommunalite": "Communauté Urbaine de Dunkerque (CUD)",
    "canton": "Bray-Dunes"
  },
  {
    "nom": "Thumeries",
    "slug": "thumeries",
    "codeInsee": "59592",
    "codePostal": "59239",
    "population": 4170,
    "latitude": 50.4724,
    "longitude": 3.0656,
    "altitude": 35,
    "logements": 1895,
    "logementsMaison": 82,
    "prixM2Moyen": 1820,
    "vehiculesElectriques": 148,
    "croissanceVE": 25,
    "bornesPubliques": 4,
    "intercommunalite": "Communauté de Communes du Pays de l'Avesnois",
    "canton": "Thumeries"
  },
  {
    "nom": "Hérin",
    "slug": "herin",
    "codeInsee": "59302",
    "codePostal": "59195",
    "population": 4169,
    "latitude": 50.3593,
    "longitude": 3.4489,
    "altitude": 37,
    "logements": 1895,
    "logementsMaison": 85,
    "prixM2Moyen": 2080,
    "vehiculesElectriques": 150,
    "croissanceVE": 20,
    "bornesPubliques": 6,
    "intercommunalite": "Communauté de Communes du Pays de l'Avesnois",
    "canton": "Hérin"
  },
  {
    "nom": "Gondecourt",
    "slug": "gondecourt",
    "codeInsee": "59266",
    "codePostal": "59147",
    "population": 4148,
    "latitude": 50.5474,
    "longitude": 2.9816,
    "altitude": 35,
    "logements": 1885,
    "logementsMaison": 84,
    "prixM2Moyen": 1630,
    "vehiculesElectriques": 121,
    "croissanceVE": 32,
    "bornesPubliques": 6,
    "intercommunalite": "Communauté de Communes du Pays de l'Avesnois",
    "canton": "Gondecourt"
  },
  {
    "nom": "Solesmes",
    "slug": "solesmes",
    "codeInsee": "59571",
    "codePostal": "59730",
    "population": 4142,
    "latitude": 50.173,
    "longitude": 3.5144,
    "altitude": 33,
    "logements": 1883,
    "logementsMaison": 82,
    "prixM2Moyen": 1990,
    "vehiculesElectriques": 163,
    "croissanceVE": 25,
    "bornesPubliques": 9,
    "intercommunalite": "Communauté de Communes du Pays de l'Avesnois",
    "canton": "Solesmes"
  },
  {
    "nom": "Ghyvelde",
    "slug": "ghyvelde",
    "codeInsee": "59260",
    "codePostal": "59122",
    "population": 4133,
    "latitude": 51.0331,
    "longitude": 2.5213,
    "altitude": 3,
    "logements": 1879,
    "logementsMaison": 74,
    "prixM2Moyen": 1660,
    "vehiculesElectriques": 152,
    "croissanceVE": 24,
    "bornesPubliques": 8,
    "intercommunalite": "Communauté de Communes du Pays de l'Avesnois",
    "canton": "Ghyvelde"
  },
  {
    "nom": "Bouchain",
    "slug": "bouchain",
    "codeInsee": "59092",
    "codePostal": "59111",
    "population": 4113,
    "latitude": 50.2785,
    "longitude": 3.3164,
    "altitude": 36,
    "logements": 1870,
    "logementsMaison": 82,
    "prixM2Moyen": 1610,
    "vehiculesElectriques": 140,
    "croissanceVE": 27,
    "bornesPubliques": 9,
    "intercommunalite": "Communauté d'Agglomération de la Porte du Hainaut",
    "canton": "Bouchain"
  },
  {
    "nom": "Abscon",
    "slug": "abscon",
    "codeInsee": "59002",
    "codePostal": "59215",
    "population": 4108,
    "latitude": 50.3293,
    "longitude": 3.2993,
    "altitude": 31,
    "logements": 1867,
    "logementsMaison": 85,
    "prixM2Moyen": 1810,
    "vehiculesElectriques": 143,
    "croissanceVE": 25,
    "bornesPubliques": 6,
    "intercommunalite": "Communauté de Communes du Pays de l'Avesnois",
    "canton": "Abscon"
  },
  {
    "nom": "Leffrinckoucke",
    "slug": "leffrinckoucke",
    "codeInsee": "59340",
    "codePostal": "59495",
    "population": 4078,
    "latitude": 51.046,
    "longitude": 2.4515,
    "altitude": 9,
    "logements": 1854,
    "logementsMaison": 85,
    "prixM2Moyen": 2380,
    "vehiculesElectriques": 125,
    "croissanceVE": 24,
    "bornesPubliques": 7,
    "intercommunalite": "Communauté de Communes du Pays de l'Avesnois",
    "canton": "Leffrinckoucke"
  },
  {
    "nom": "Avesnes-sur-Helpe",
    "slug": "avesnes-sur-helpe",
    "codeInsee": "59036",
    "codePostal": "59440",
    "population": 4012,
    "latitude": 50.1224,
    "longitude": 3.9269,
    "altitude": 170,
    "logements": 1824,
    "logementsMaison": 82,
    "prixM2Moyen": 2200,
    "vehiculesElectriques": 158,
    "croissanceVE": 28,
    "bornesPubliques": 9,
    "intercommunalite": "Communauté de Communes du Pays de l'Avesnois",
    "canton": "Avesnes-sur-Helpe"
  },
  {
    "nom": "Neuville-Saint-Rémy",
    "slug": "neuville-saint-remy",
    "codeInsee": "59428",
    "codePostal": "59554",
    "population": 4012,
    "latitude": 50.187,
    "longitude": 3.2202,
    "altitude": 44,
    "logements": 1824,
    "logementsMaison": 91,
    "prixM2Moyen": 1990,
    "vehiculesElectriques": 116,
    "croissanceVE": 22,
    "bornesPubliques": 4,
    "intercommunalite": "Communauté d'Agglomération de Cambrai",
    "canton": "Neuville-Saint-Rémy"
  },
  {
    "nom": "Raimbeaucourt",
    "slug": "raimbeaucourt",
    "codeInsee": "59489",
    "codePostal": "59283",
    "population": 4000,
    "latitude": 50.4369,
    "longitude": 3.1024,
    "altitude": 34,
    "logements": 1818,
    "logementsMaison": 79,
    "prixM2Moyen": 1820,
    "vehiculesElectriques": 153,
    "croissanceVE": 31,
    "bornesPubliques": 5,
    "intercommunalite": "Communauté de Communes du Pays de l'Avesnois",
    "canton": "Raimbeaucourt"
  },
  {
    "nom": "Masny",
    "slug": "masny",
    "codeInsee": "59390",
    "codePostal": "59176",
    "population": 3999,
    "latitude": 50.3441,
    "longitude": 3.194,
    "altitude": 40,
    "logements": 1818,
    "logementsMaison": 83,
    "prixM2Moyen": 1640,
    "vehiculesElectriques": 102,
    "croissanceVE": 32,
    "bornesPubliques": 6,
    "intercommunalite": "Communauté de Communes du Pays de l'Avesnois",
    "canton": "Masny"
  },
  {
    "nom": "Rousies",
    "slug": "rousies",
    "codeInsee": "59514",
    "codePostal": "59131",
    "population": 3980,
    "latitude": 50.2717,
    "longitude": 3.999,
    "altitude": 44,
    "logements": 1809,
    "logementsMaison": 83,
    "prixM2Moyen": 2370,
    "vehiculesElectriques": 115,
    "croissanceVE": 31,
    "bornesPubliques": 6,
    "intercommunalite": "Communauté de Communes du Pays de l'Avesnois",
    "canton": "Rousies"
  },
  {
    "nom": "Hondschoote",
    "slug": "hondschoote",
    "codeInsee": "59309",
    "codePostal": "59122",
    "population": 3957,
    "latitude": 50.972,
    "longitude": 2.585,
    "altitude": 2,
    "logements": 1799,
    "logementsMaison": 80,
    "prixM2Moyen": 1970,
    "vehiculesElectriques": 106,
    "croissanceVE": 26,
    "bornesPubliques": 8,
    "intercommunalite": "Communauté de Communes du Pays de l'Avesnois",
    "canton": "Hondschoote"
  },
  {
    "nom": "Toufflers",
    "slug": "toufflers",
    "codeInsee": "59598",
    "codePostal": "59390",
    "population": 3957,
    "latitude": 50.6608,
    "longitude": 3.2324,
    "altitude": 36,
    "logements": 1799,
    "logementsMaison": 84,
    "prixM2Moyen": 1640,
    "vehiculesElectriques": 130,
    "croissanceVE": 29,
    "bornesPubliques": 6,
    "intercommunalite": "Communauté de Communes du Pays de l'Avesnois",
    "canton": "Toufflers"
  },
  {
    "nom": "Maing",
    "slug": "maing",
    "codeInsee": "59369",
    "codePostal": "59233",
    "population": 3954,
    "latitude": 50.3041,
    "longitude": 3.4892,
    "altitude": 30,
    "logements": 1797,
    "logementsMaison": 85,
    "prixM2Moyen": 1620,
    "vehiculesElectriques": 152,
    "croissanceVE": 30,
    "bornesPubliques": 8,
    "intercommunalite": "Communauté de Communes du Pays de l'Avesnois",
    "canton": "Maing"
  },
  {
    "nom": "Hasnon",
    "slug": "hasnon",
    "codeInsee": "59284",
    "codePostal": "59178",
    "population": 3849,
    "latitude": 50.4132,
    "longitude": 3.3866,
    "altitude": 41,
    "logements": 1750,
    "logementsMaison": 79,
    "prixM2Moyen": 2380,
    "vehiculesElectriques": 111,
    "croissanceVE": 27,
    "bornesPubliques": 7,
    "intercommunalite": "Communauté d'Agglomération de la Porte du Hainaut",
    "canton": "Hasnon"
  },
  {
    "nom": "Rœulx",
    "slug": "rulx",
    "codeInsee": "59504",
    "codePostal": "59172",
    "population": 3743,
    "latitude": 50.3137,
    "longitude": 3.3281,
    "altitude": 29,
    "logements": 1701,
    "logementsMaison": 86,
    "prixM2Moyen": 1610,
    "vehiculesElectriques": 132,
    "croissanceVE": 25,
    "bornesPubliques": 9,
    "intercommunalite": "Communauté d'Agglomération de la Porte du Hainaut",
    "canton": "Rœulx"
  },
  {
    "nom": "Lourches",
    "slug": "lourches",
    "codeInsee": "59361",
    "codePostal": "59156",
    "population": 3734,
    "latitude": 50.3106,
    "longitude": 3.3579,
    "altitude": 36,
    "logements": 1697,
    "logementsMaison": 86,
    "prixM2Moyen": 2230,
    "vehiculesElectriques": 149,
    "croissanceVE": 18,
    "bornesPubliques": 9,
    "intercommunalite": "Communauté d'Agglomération de la Porte du Hainaut",
    "canton": "Lourches"
  },
  {
    "nom": "Templemars",
    "slug": "templemars",
    "codeInsee": "59585",
    "codePostal": "59175",
    "population": 3669,
    "latitude": 50.5705,
    "longitude": 3.059,
    "altitude": 28,
    "logements": 1668,
    "logementsMaison": 78,
    "prixM2Moyen": 1890,
    "vehiculesElectriques": 123,
    "croissanceVE": 25,
    "bornesPubliques": 8,
    "intercommunalite": "Communauté de Communes du Pays de l'Avesnois",
    "canton": "Templemars"
  },
  {
    "nom": "Avesnes-les-Aubert",
    "slug": "avesnes-les-aubert",
    "codeInsee": "59037",
    "codePostal": "59129",
    "population": 3562,
    "latitude": 50.1931,
    "longitude": 3.3726,
    "altitude": 42,
    "logements": 1619,
    "logementsMaison": 83,
    "prixM2Moyen": 1860,
    "vehiculesElectriques": 98,
    "croissanceVE": 25,
    "bornesPubliques": 4,
    "intercommunalite": "Communauté de Communes du Pays de l'Avesnois",
    "canton": "Avesnes-les-Aubert"
  },
  {
    "nom": "Allennes-les-Marais",
    "slug": "allennes-les-marais",
    "codeInsee": "59005",
    "codePostal": "59251",
    "population": 3545,
    "latitude": 50.5406,
    "longitude": 2.946,
    "altitude": 32,
    "logements": 1611,
    "logementsMaison": 85,
    "prixM2Moyen": 1890,
    "vehiculesElectriques": 107,
    "croissanceVE": 27,
    "bornesPubliques": 9,
    "intercommunalite": "Communauté de Communes du Pays de l'Avesnois",
    "canton": "Allennes-les-Marais"
  },
  {
    "nom": "Mérignies",
    "slug": "merignies",
    "codeInsee": "59398",
    "codePostal": "59710",
    "population": 3527,
    "latitude": 50.5048,
    "longitude": 3.1222,
    "altitude": 34,
    "logements": 1603,
    "logementsMaison": 83,
    "prixM2Moyen": 1800,
    "vehiculesElectriques": 107,
    "croissanceVE": 21,
    "bornesPubliques": 5,
    "intercommunalite": "Communauté de Communes du Pays de l'Avesnois",
    "canton": "Mérignies"
  },
  {
    "nom": "Bergues",
    "slug": "bergues",
    "codeInsee": "59067",
    "codePostal": "59380",
    "population": 3525,
    "latitude": 50.969,
    "longitude": 2.4342,
    "altitude": 12,
    "logements": 1602,
    "logementsMaison": 79,
    "prixM2Moyen": 1880,
    "vehiculesElectriques": 101,
    "croissanceVE": 31,
    "bornesPubliques": 7,
    "intercommunalite": "Communauté de Communes du Pays de l'Avesnois",
    "canton": "Bergues"
  },
  {
    "nom": "Hornaing",
    "slug": "hornaing",
    "codeInsee": "59314",
    "codePostal": "59171",
    "population": 3496,
    "latitude": 50.3693,
    "longitude": 3.3373,
    "altitude": 43,
    "logements": 1589,
    "logementsMaison": 83,
    "prixM2Moyen": 1990,
    "vehiculesElectriques": 120,
    "croissanceVE": 22,
    "bornesPubliques": 4,
    "intercommunalite": "Communauté de Communes du Pays de l'Avesnois",
    "canton": "Hornaing"
  },
  {
    "nom": "Steenwerck",
    "slug": "steenwerck",
    "codeInsee": "59581",
    "codePostal": "59181",
    "population": 3450,
    "latitude": 50.6829,
    "longitude": 2.7664,
    "altitude": 36,
    "logements": 1568,
    "logementsMaison": 85,
    "prixM2Moyen": 2050,
    "vehiculesElectriques": 110,
    "croissanceVE": 18,
    "bornesPubliques": 7,
    "intercommunalite": "Communauté de Communes du Pays de l'Avesnois",
    "canton": "Steenwerck"
  },
  {
    "nom": "Coutiches",
    "slug": "coutiches",
    "codeInsee": "59158",
    "codePostal": "59310",
    "population": 3436,
    "latitude": 50.4493,
    "longitude": 3.1906,
    "altitude": 33,
    "logements": 1562,
    "logementsMaison": 75,
    "prixM2Moyen": 2200,
    "vehiculesElectriques": 123,
    "croissanceVE": 26,
    "bornesPubliques": 9,
    "intercommunalite": "Communauté d'Agglomération du Douaisis (CAD)",
    "canton": "Coutiches"
  },
  {
    "nom": "Landrecies",
    "slug": "landrecies",
    "codeInsee": "59331",
    "codePostal": "59550",
    "population": 3407,
    "latitude": 50.117,
    "longitude": 3.6841,
    "altitude": 151,
    "logements": 1549,
    "logementsMaison": 91,
    "prixM2Moyen": 2220,
    "vehiculesElectriques": 130,
    "croissanceVE": 29,
    "bornesPubliques": 6,
    "intercommunalite": "Communauté de Communes du Pays de l'Avesnois",
    "canton": "Landrecies"
  },
  {
    "nom": "Iwuy",
    "slug": "iwuy",
    "codeInsee": "59322",
    "codePostal": "59141",
    "population": 3403,
    "latitude": 50.2334,
    "longitude": 3.3363,
    "altitude": 35,
    "logements": 1547,
    "logementsMaison": 89,
    "prixM2Moyen": 2100,
    "vehiculesElectriques": 134,
    "croissanceVE": 28,
    "bornesPubliques": 6,
    "intercommunalite": "Communauté d'Agglomération de Cambrai",
    "canton": "Iwuy"
  },
  {
    "nom": "Houplin-Ancoisne",
    "slug": "houplin-ancoisne",
    "codeInsee": "59316",
    "codePostal": "59263",
    "population": 3326,
    "latitude": 50.5686,
    "longitude": 2.9943,
    "altitude": 39,
    "logements": 1512,
    "logementsMaison": 76,
    "prixM2Moyen": 2200,
    "vehiculesElectriques": 91,
    "croissanceVE": 31,
    "bornesPubliques": 8,
    "intercommunalite": "Communauté de Communes du Pays de l'Avesnois",
    "canton": "Houplin-Ancoisne"
  },
  {
    "nom": "Hoymille",
    "slug": "hoymille",
    "codeInsee": "59319",
    "codePostal": "59492",
    "population": 3259,
    "latitude": 50.9744,
    "longitude": 2.4543,
    "altitude": 6,
    "logements": 1481,
    "logementsMaison": 77,
    "prixM2Moyen": 2070,
    "vehiculesElectriques": 131,
    "croissanceVE": 27,
    "bornesPubliques": 9,
    "intercommunalite": "Communauté de Communes du Pays de l'Avesnois",
    "canton": "Hoymille"
  },
  {
    "nom": "Bavay",
    "slug": "bavay",
    "codeInsee": "59053",
    "codePostal": "59570",
    "population": 3249,
    "latitude": 50.2913,
    "longitude": 3.8029,
    "altitude": 40,
    "logements": 1477,
    "logementsMaison": 82,
    "prixM2Moyen": 2190,
    "vehiculesElectriques": 122,
    "croissanceVE": 23,
    "bornesPubliques": 9,
    "intercommunalite": "Communauté de Communes du Pays de l'Avesnois",
    "canton": "Bavay"
  },
  {
    "nom": "Haveluy",
    "slug": "haveluy",
    "codeInsee": "59292",
    "codePostal": "59255",
    "population": 3222,
    "latitude": 50.356,
    "longitude": 3.4016,
    "altitude": 43,
    "logements": 1465,
    "logementsMaison": 83,
    "prixM2Moyen": 2130,
    "vehiculesElectriques": 98,
    "croissanceVE": 21,
    "bornesPubliques": 4,
    "intercommunalite": "Communauté de Communes du Pays de l'Avesnois",
    "canton": "Haveluy"
  },
  {
    "nom": "Fretin",
    "slug": "fretin",
    "codeInsee": "59256",
    "codePostal": "59273",
    "population": 3214,
    "latitude": 50.5676,
    "longitude": 3.1306,
    "altitude": 31,
    "logements": 1461,
    "logementsMaison": 80,
    "prixM2Moyen": 1920,
    "vehiculesElectriques": 85,
    "croissanceVE": 28,
    "bornesPubliques": 6,
    "intercommunalite": "Communauté de Communes du Pays de l'Avesnois",
    "canton": "Fretin"
  },
  {
    "nom": "Proville",
    "slug": "proville",
    "codeInsee": "59476",
    "codePostal": "59267",
    "population": 3206,
    "latitude": 50.1566,
    "longitude": 3.2042,
    "altitude": 33,
    "logements": 1457,
    "logementsMaison": 82,
    "prixM2Moyen": 1990,
    "vehiculesElectriques": 106,
    "croissanceVE": 21,
    "bornesPubliques": 9,
    "intercommunalite": "Communauté d'Agglomération de Cambrai",
    "canton": "Proville"
  },
  {
    "nom": "Salomé",
    "slug": "salome",
    "codeInsee": "59550",
    "codePostal": "59496",
    "population": 3182,
    "latitude": 50.5381,
    "longitude": 2.8361,
    "altitude": 41,
    "logements": 1446,
    "logementsMaison": 85,
    "prixM2Moyen": 2170,
    "vehiculesElectriques": 100,
    "croissanceVE": 21,
    "bornesPubliques": 7,
    "intercommunalite": "Communauté de Communes du Pays de l'Avesnois",
    "canton": "Salomé"
  },
  {
    "nom": "Escaudœuvres",
    "slug": "escauduvres",
    "codeInsee": "59206",
    "codePostal": "59161",
    "population": 3171,
    "latitude": 50.1937,
    "longitude": 3.2712,
    "altitude": 41,
    "logements": 1441,
    "logementsMaison": 91,
    "prixM2Moyen": 1850,
    "vehiculesElectriques": 87,
    "croissanceVE": 26,
    "bornesPubliques": 8,
    "intercommunalite": "Communauté de Communes du Pays de l'Avesnois",
    "canton": "Escaudœuvres"
  },
  {
    "nom": "Berlaimont",
    "slug": "berlaimont",
    "codeInsee": "59068",
    "codePostal": "59145",
    "population": 3159,
    "latitude": 50.2065,
    "longitude": 3.7939,
    "altitude": 169,
    "logements": 1436,
    "logementsMaison": 88,
    "prixM2Moyen": 2090,
    "vehiculesElectriques": 108,
    "croissanceVE": 22,
    "bornesPubliques": 5,
    "intercommunalite": "Communauté de Communes du Pays de l'Avesnois",
    "canton": "Berlaimont"
  },
  {
    "nom": "Quarouble",
    "slug": "quarouble",
    "codeInsee": "59479",
    "codePostal": "59243",
    "population": 3145,
    "latitude": 50.4056,
    "longitude": 3.626,
    "altitude": 39,
    "logements": 1430,
    "logementsMaison": 76,
    "prixM2Moyen": 1730,
    "vehiculesElectriques": 117,
    "croissanceVE": 26,
    "bornesPubliques": 8,
    "intercommunalite": "Communauté de Communes du Pays de l'Avesnois",
    "canton": "Quarouble"
  },
  {
    "nom": "Arleux",
    "slug": "arleux",
    "codeInsee": "59015",
    "codePostal": "59151",
    "population": 3125,
    "latitude": 50.2834,
    "longitude": 3.1041,
    "altitude": 40,
    "logements": 1420,
    "logementsMaison": 88,
    "prixM2Moyen": 2120,
    "vehiculesElectriques": 118,
    "croissanceVE": 22,
    "bornesPubliques": 9,
    "intercommunalite": "Communauté de Communes du Pays de l'Avesnois",
    "canton": "Arleux"
  },
  {
    "nom": "Boussois",
    "slug": "boussois",
    "codeInsee": "59104",
    "codePostal": "59168",
    "population": 3123,
    "latitude": 50.2951,
    "longitude": 4.0473,
    "altitude": 31,
    "logements": 1420,
    "logementsMaison": 88,
    "prixM2Moyen": 1710,
    "vehiculesElectriques": 87,
    "croissanceVE": 26,
    "bornesPubliques": 7,
    "intercommunalite": "Communauté d'Agglomération Maubeuge Val de Sambre",
    "canton": "Boussois"
  },
  {
    "nom": "La Sentinelle",
    "slug": "la-sentinelle",
    "codeInsee": "59564",
    "codePostal": "59174",
    "population": 3103,
    "latitude": 50.3502,
    "longitude": 3.4766,
    "altitude": 40,
    "logements": 1410,
    "logementsMaison": 90,
    "prixM2Moyen": 1880,
    "vehiculesElectriques": 103,
    "croissanceVE": 30,
    "bornesPubliques": 9,
    "intercommunalite": "Communauté de Communes du Pays de l'Avesnois",
    "canton": "La Sentinelle"
  },
  {
    "nom": "Anor",
    "slug": "anor",
    "codeInsee": "59012",
    "codePostal": "59186",
    "population": 3099,
    "latitude": 49.9965,
    "longitude": 4.1216,
    "altitude": 160,
    "logements": 1409,
    "logementsMaison": 89,
    "prixM2Moyen": 2130,
    "vehiculesElectriques": 122,
    "croissanceVE": 28,
    "bornesPubliques": 6,
    "intercommunalite": "Communauté de Communes du Pays de l'Avesnois",
    "canton": "Anor"
  },
  {
    "nom": "Chéreng",
    "slug": "chereng",
    "codeInsee": "59146",
    "codePostal": "59152",
    "population": 3078,
    "latitude": 50.6108,
    "longitude": 3.211,
    "altitude": 34,
    "logements": 1399,
    "logementsMaison": 84,
    "prixM2Moyen": 2320,
    "vehiculesElectriques": 114,
    "croissanceVE": 18,
    "bornesPubliques": 4,
    "intercommunalite": "Communauté de Communes du Pays de l'Avesnois",
    "canton": "Chéreng"
  },
  {
    "nom": "Lecelles",
    "slug": "lecelles",
    "codeInsee": "59335",
    "codePostal": "59226",
    "population": 3046,
    "latitude": 50.4766,
    "longitude": 3.3964,
    "altitude": 31,
    "logements": 1385,
    "logementsMaison": 85,
    "prixM2Moyen": 1720,
    "vehiculesElectriques": 114,
    "croissanceVE": 23,
    "bornesPubliques": 7,
    "intercommunalite": "Communauté de Communes du Pays de l'Avesnois",
    "canton": "Lecelles"
  },
  {
    "nom": "Emmerin",
    "slug": "emmerin",
    "codeInsee": "59193",
    "codePostal": "59320",
    "population": 3026,
    "latitude": 50.5906,
    "longitude": 3.0062,
    "altitude": 42,
    "logements": 1375,
    "logementsMaison": 75,
    "prixM2Moyen": 1630,
    "vehiculesElectriques": 90,
    "croissanceVE": 32,
    "bornesPubliques": 9,
    "intercommunalite": "Communauté de Communes du Pays de l'Avesnois",
    "canton": "Emmerin"
  },
  {
    "nom": "Pont-à-Marcq",
    "slug": "pont-a-marcq",
    "codeInsee": "59466",
    "codePostal": "59710",
    "population": 3016,
    "latitude": 50.5218,
    "longitude": 3.1156,
    "altitude": 30,
    "logements": 1371,
    "logementsMaison": 80,
    "prixM2Moyen": 1900,
    "vehiculesElectriques": 83,
    "croissanceVE": 25,
    "bornesPubliques": 4,
    "intercommunalite": "Communauté de Communes du Pays de l'Avesnois",
    "canton": "Pont-à-Marcq"
  },
  {
    "nom": "Lezennes",
    "slug": "lezennes",
    "codeInsee": "59346",
    "codePostal": "59260",
    "population": 2978,
    "latitude": 50.6101,
    "longitude": 3.1174,
    "altitude": 43,
    "logements": 1354,
    "logementsMaison": 82,
    "prixM2Moyen": 1740,
    "vehiculesElectriques": 110,
    "croissanceVE": 32,
    "bornesPubliques": 8,
    "intercommunalite": "Métropole Européenne de Lille (MEL)",
    "canton": "Lezennes"
  },
  {
    "nom": "Willems",
    "slug": "willems",
    "codeInsee": "59660",
    "codePostal": "59780",
    "population": 2941,
    "latitude": 50.6322,
    "longitude": 3.2314,
    "altitude": 30,
    "logements": 1337,
    "logementsMaison": 79,
    "prixM2Moyen": 1950,
    "vehiculesElectriques": 117,
    "croissanceVE": 32,
    "bornesPubliques": 5,
    "intercommunalite": "Communauté de Communes du Pays de l'Avesnois",
    "canton": "Willems"
  },
  {
    "nom": "Thiant",
    "slug": "thiant",
    "codeInsee": "59589",
    "codePostal": "59224",
    "population": 2914,
    "latitude": 50.2962,
    "longitude": 3.4395,
    "altitude": 43,
    "logements": 1325,
    "logementsMaison": 87,
    "prixM2Moyen": 2350,
    "vehiculesElectriques": 86,
    "croissanceVE": 28,
    "bornesPubliques": 6,
    "intercommunalite": "Communauté de Communes du Pays de l'Avesnois",
    "canton": "Thiant"
  },
  {
    "nom": "Neuville-sur-Escaut",
    "slug": "neuville-sur-escaut",
    "codeInsee": "59429",
    "codePostal": "59293",
    "population": 2901,
    "latitude": 50.2922,
    "longitude": 3.3491,
    "altitude": 38,
    "logements": 1319,
    "logementsMaison": 86,
    "prixM2Moyen": 2150,
    "vehiculesElectriques": 115,
    "croissanceVE": 30,
    "bornesPubliques": 9,
    "intercommunalite": "Communauté de Communes du Pays de l'Avesnois",
    "canton": "Neuville-sur-Escaut"
  },
  {
    "nom": "Beuvry-la-Forêt",
    "slug": "beuvry-la-foret",
    "codeInsee": "59080",
    "codePostal": "59310",
    "population": 2861,
    "latitude": 50.4509,
    "longitude": 3.2832,
    "altitude": 32,
    "logements": 1300,
    "logementsMaison": 74,
    "prixM2Moyen": 1630,
    "vehiculesElectriques": 92,
    "croissanceVE": 26,
    "bornesPubliques": 8,
    "intercommunalite": "Communauté d'Agglomération du Douaisis (CAD)",
    "canton": "Beuvry-la-Forêt"
  },
  {
    "nom": "Courchelettes",
    "slug": "courchelettes",
    "codeInsee": "59156",
    "codePostal": "59552",
    "population": 2855,
    "latitude": 50.342,
    "longitude": 3.0595,
    "altitude": 43,
    "logements": 1298,
    "logementsMaison": 85,
    "prixM2Moyen": 2140,
    "vehiculesElectriques": 117,
    "croissanceVE": 22,
    "bornesPubliques": 8,
    "intercommunalite": "Communauté de Communes du Pays de l'Avesnois",
    "canton": "Courchelettes"
  },
  {
    "nom": "Sainghin-en-Mélantois",
    "slug": "sainghin-en-melantois",
    "codeInsee": "59523",
    "codePostal": "59262",
    "population": 2840,
    "latitude": 50.5856,
    "longitude": 3.1632,
    "altitude": 33,
    "logements": 1291,
    "logementsMaison": 74,
    "prixM2Moyen": 2070,
    "vehiculesElectriques": 86,
    "croissanceVE": 30,
    "bornesPubliques": 8,
    "intercommunalite": "Communauté de Communes du Pays de l'Avesnois",
    "canton": "Sainghin-en-Mélantois"
  },
  {
    "nom": "Wignehies",
    "slug": "wignehies",
    "codeInsee": "59659",
    "codePostal": "59212",
    "population": 2804,
    "latitude": 50.0142,
    "longitude": 4.0043,
    "altitude": 150,
    "logements": 1275,
    "logementsMaison": 82,
    "prixM2Moyen": 1660,
    "vehiculesElectriques": 101,
    "croissanceVE": 30,
    "bornesPubliques": 7,
    "intercommunalite": "Communauté de Communes du Pays de l'Avesnois",
    "canton": "Wignehies"
  },
  {
    "nom": "Genech",
    "slug": "genech",
    "codeInsee": "59258",
    "codePostal": "59242",
    "population": 2803,
    "latitude": 50.529,
    "longitude": 3.2254,
    "altitude": 43,
    "logements": 1274,
    "logementsMaison": 74,
    "prixM2Moyen": 1830,
    "vehiculesElectriques": 72,
    "croissanceVE": 28,
    "bornesPubliques": 6,
    "intercommunalite": "Communauté de Communes du Pays de l'Avesnois",
    "canton": "Genech"
  },
  {
    "nom": "Sains-du-Nord",
    "slug": "sains-du-nord",
    "codeInsee": "59525",
    "codePostal": "59177",
    "population": 2755,
    "latitude": 50.086,
    "longitude": 4.0362,
    "altitude": 170,
    "logements": 1252,
    "logementsMaison": 83,
    "prixM2Moyen": 2050,
    "vehiculesElectriques": 108,
    "croissanceVE": 24,
    "bornesPubliques": 8,
    "intercommunalite": "Communauté de Communes du Pays de l'Avesnois",
    "canton": "Sains-du-Nord"
  },
  {
    "nom": "Capinghem",
    "slug": "capinghem",
    "codeInsee": "59128",
    "codePostal": "59160",
    "population": 2728,
    "latitude": 50.648,
    "longitude": 2.9633,
    "altitude": 29,
    "logements": 1240,
    "logementsMaison": 80,
    "prixM2Moyen": 2270,
    "vehiculesElectriques": 77,
    "croissanceVE": 22,
    "bornesPubliques": 6,
    "intercommunalite": "Métropole Européenne de Lille (MEL)",
    "canton": "Capinghem"
  },
  {
    "nom": "Masnières",
    "slug": "masnieres",
    "codeInsee": "59389",
    "codePostal": "59241",
    "population": 2689,
    "latitude": 50.1048,
    "longitude": 3.2013,
    "altitude": 36,
    "logements": 1222,
    "logementsMaison": 84,
    "prixM2Moyen": 1640,
    "vehiculesElectriques": 95,
    "croissanceVE": 20,
    "bornesPubliques": 9,
    "intercommunalite": "Communauté de Communes du Pays de l'Avesnois",
    "canton": "Masnières"
  },
  {
    "nom": "Verlinghem",
    "slug": "verlinghem",
    "codeInsee": "59611",
    "codePostal": "59237",
    "population": 2682,
    "latitude": 50.682,
    "longitude": 2.9965,
    "altitude": 38,
    "logements": 1219,
    "logementsMaison": 81,
    "prixM2Moyen": 1940,
    "vehiculesElectriques": 100,
    "croissanceVE": 32,
    "bornesPubliques": 9,
    "intercommunalite": "Communauté de Communes du Pays de l'Avesnois",
    "canton": "Verlinghem"
  },
  {
    "nom": "Râches",
    "slug": "raches",
    "codeInsee": "59486",
    "codePostal": "59194",
    "population": 2672,
    "latitude": 50.4208,
    "longitude": 3.1338,
    "altitude": 40,
    "logements": 1215,
    "logementsMaison": 74,
    "prixM2Moyen": 1600,
    "vehiculesElectriques": 88,
    "croissanceVE": 25,
    "bornesPubliques": 6,
    "intercommunalite": "Communauté de Communes du Pays de l'Avesnois",
    "canton": "Râches"
  },
  {
    "nom": "Marpent",
    "slug": "marpent",
    "codeInsee": "59385",
    "codePostal": "59164",
    "population": 2653,
    "latitude": 50.2913,
    "longitude": 4.0751,
    "altitude": 26,
    "logements": 1206,
    "logementsMaison": 90,
    "prixM2Moyen": 1960,
    "vehiculesElectriques": 77,
    "croissanceVE": 28,
    "bornesPubliques": 9,
    "intercommunalite": "Communauté de Communes du Pays de l'Avesnois",
    "canton": "Marpent"
  },
  {
    "nom": "Nomain",
    "slug": "nomain",
    "codeInsee": "59435",
    "codePostal": "59310",
    "population": 2651,
    "latitude": 50.5039,
    "longitude": 3.2426,
    "altitude": 28,
    "logements": 1205,
    "logementsMaison": 74,
    "prixM2Moyen": 1610,
    "vehiculesElectriques": 73,
    "croissanceVE": 22,
    "bornesPubliques": 6,
    "intercommunalite": "Communauté d'Agglomération du Douaisis (CAD)",
    "canton": "Nomain"
  },
  {
    "nom": "Vieux-Berquin",
    "slug": "vieux-berquin",
    "codeInsee": "59615",
    "codePostal": "59232",
    "population": 2628,
    "latitude": 50.6936,
    "longitude": 2.6229,
    "altitude": 41,
    "logements": 1195,
    "logementsMaison": 84,
    "prixM2Moyen": 2310,
    "vehiculesElectriques": 76,
    "croissanceVE": 32,
    "bornesPubliques": 3,
    "intercommunalite": "Communauté de Communes du Pays de l'Avesnois",
    "canton": "Vieux-Berquin"
  },
  {
    "nom": "Haspres",
    "slug": "haspres",
    "codeInsee": "59285",
    "codePostal": "59198",
    "population": 2626,
    "latitude": 50.2642,
    "longitude": 3.412,
    "altitude": 41,
    "logements": 1194,
    "logementsMaison": 85,
    "prixM2Moyen": 2130,
    "vehiculesElectriques": 107,
    "croissanceVE": 28,
    "bornesPubliques": 5,
    "intercommunalite": "Communauté de Communes du Pays de l'Avesnois",
    "canton": "Haspres"
  },
  {
    "nom": "Wahagnies",
    "slug": "wahagnies",
    "codeInsee": "59630",
    "codePostal": "59261",
    "population": 2613,
    "latitude": 50.4848,
    "longitude": 3.0284,
    "altitude": 40,
    "logements": 1188,
    "logementsMaison": 79,
    "prixM2Moyen": 1780,
    "vehiculesElectriques": 102,
    "croissanceVE": 31,
    "bornesPubliques": 6,
    "intercommunalite": "Communauté de Communes du Pays de l'Avesnois",
    "canton": "Wahagnies"
  },
  {
    "nom": "Frelinghien",
    "slug": "frelinghien",
    "codeInsee": "59252",
    "codePostal": "59236",
    "population": 2609,
    "latitude": 50.7043,
    "longitude": 2.9525,
    "altitude": 31,
    "logements": 1186,
    "logementsMaison": 81,
    "prixM2Moyen": 1930,
    "vehiculesElectriques": 87,
    "croissanceVE": 25,
    "bornesPubliques": 8,
    "intercommunalite": "Communauté de Communes du Pays de l'Avesnois",
    "canton": "Frelinghien"
  },
  {
    "nom": "Trélon",
    "slug": "trelon",
    "codeInsee": "59601",
    "codePostal": "59132",
    "population": 2604,
    "latitude": 50.0686,
    "longitude": 4.126,
    "altitude": 168,
    "logements": 1184,
    "logementsMaison": 85,
    "prixM2Moyen": 2110,
    "vehiculesElectriques": 94,
    "croissanceVE": 25,
    "bornesPubliques": 5,
    "intercommunalite": "Communauté de Communes du Pays de l'Avesnois",
    "canton": "Trélon"
  },
  {
    "nom": "Morbecque",
    "slug": "morbecque",
    "codeInsee": "59416",
    "codePostal": "59190",
    "population": 2573,
    "latitude": 50.6803,
    "longitude": 2.5336,
    "altitude": 56,
    "logements": 1170,
    "logementsMaison": 75,
    "prixM2Moyen": 2130,
    "vehiculesElectriques": 84,
    "croissanceVE": 32,
    "bornesPubliques": 8,
    "intercommunalite": "Communauté de Communes de Flandre Intérieure (CCFI)",
    "canton": "Morbecque"
  },
  {
    "nom": "Watten",
    "slug": "watten",
    "codeInsee": "59647",
    "codePostal": "59143",
    "population": 2564,
    "latitude": 50.8317,
    "longitude": 2.2315,
    "altitude": 61,
    "logements": 1165,
    "logementsMaison": 79,
    "prixM2Moyen": 1870,
    "vehiculesElectriques": 89,
    "croissanceVE": 24,
    "bornesPubliques": 6,
    "intercommunalite": "Communauté de Communes du Pays de l'Avesnois",
    "canton": "Watten"
  },
  {
    "nom": "Avelin",
    "slug": "avelin",
    "codeInsee": "59034",
    "codePostal": "59710",
    "population": 2561,
    "latitude": 50.5397,
    "longitude": 3.085,
    "altitude": 28,
    "logements": 1164,
    "logementsMaison": 77,
    "prixM2Moyen": 2020,
    "vehiculesElectriques": 79,
    "croissanceVE": 19,
    "bornesPubliques": 8,
    "intercommunalite": "Communauté de Communes du Pays de l'Avesnois",
    "canton": "Avelin"
  },
  {
    "nom": "Camphin-en-Pévèle",
    "slug": "camphin-en-pevele",
    "codeInsee": "59124",
    "codePostal": "59780",
    "population": 2518,
    "latitude": 50.5924,
    "longitude": 3.2558,
    "altitude": 31,
    "logements": 1145,
    "logementsMaison": 84,
    "prixM2Moyen": 1860,
    "vehiculesElectriques": 95,
    "croissanceVE": 29,
    "bornesPubliques": 3,
    "intercommunalite": "Communauté de Communes du Pays de l'Avesnois",
    "canton": "Camphin-en-Pévèle"
  },
  {
    "nom": "Landas",
    "slug": "landas",
    "codeInsee": "59330",
    "codePostal": "59310",
    "population": 2518,
    "latitude": 50.4708,
    "longitude": 3.2947,
    "altitude": 31,
    "logements": 1145,
    "logementsMaison": 77,
    "prixM2Moyen": 2370,
    "vehiculesElectriques": 95,
    "croissanceVE": 22,
    "bornesPubliques": 8,
    "intercommunalite": "Communauté d'Agglomération du Douaisis (CAD)",
    "canton": "Landas"
  },
  {
    "nom": "Monchecourt",
    "slug": "monchecourt",
    "codeInsee": "59409",
    "codePostal": "59234",
    "population": 2516,
    "latitude": 50.307,
    "longitude": 3.2113,
    "altitude": 37,
    "logements": 1144,
    "logementsMaison": 88,
    "prixM2Moyen": 2110,
    "vehiculesElectriques": 95,
    "croissanceVE": 21,
    "bornesPubliques": 8,
    "intercommunalite": "Communauté de Communes du Pays de l'Avesnois",
    "canton": "Monchecourt"
  },
  {
    "nom": "Saultain",
    "slug": "saultain",
    "codeInsee": "59557",
    "codePostal": "59990",
    "population": 2499,
    "latitude": 50.3359,
    "longitude": 3.5832,
    "altitude": 44,
    "logements": 1136,
    "logementsMaison": 90,
    "prixM2Moyen": 2250,
    "vehiculesElectriques": 86,
    "croissanceVE": 19,
    "bornesPubliques": 4,
    "intercommunalite": "Communauté de Communes du Pays de l'Avesnois",
    "canton": "Saultain"
  },
  {
    "nom": "Famars",
    "slug": "famars",
    "codeInsee": "59221",
    "codePostal": "59300",
    "population": 2474,
    "latitude": 50.3089,
    "longitude": 3.5261,
    "altitude": 36,
    "logements": 1125,
    "logementsMaison": 91,
    "prixM2Moyen": 1870,
    "vehiculesElectriques": 84,
    "croissanceVE": 29,
    "bornesPubliques": 7,
    "intercommunalite": "Communauté d'Agglomération de Valenciennes Métropole",
    "canton": "Valenciennes"
  },
  {
    "nom": "Leval",
    "slug": "leval",
    "codeInsee": "59344",
    "codePostal": "59620",
    "population": 2474,
    "latitude": 50.1803,
    "longitude": 3.8325,
    "altitude": 160,
    "logements": 1125,
    "logementsMaison": 83,
    "prixM2Moyen": 2150,
    "vehiculesElectriques": 92,
    "croissanceVE": 22,
    "bornesPubliques": 3,
    "intercommunalite": "Communauté d'Agglomération Maubeuge Val de Sambre",
    "canton": "Leval"
  },
  {
    "nom": "Busigny",
    "slug": "busigny",
    "codeInsee": "59118",
    "codePostal": "59137",
    "population": 2435,
    "latitude": 50.0417,
    "longitude": 3.4677,
    "altitude": 38,
    "logements": 1107,
    "logementsMaison": 82,
    "prixM2Moyen": 2330,
    "vehiculesElectriques": 97,
    "croissanceVE": 26,
    "bornesPubliques": 8,
    "intercommunalite": "Communauté de Communes du Pays de l'Avesnois",
    "canton": "Busigny"
  },
  {
    "nom": "Ennevelin",
    "slug": "ennevelin",
    "codeInsee": "59197",
    "codePostal": "59710",
    "population": 2416,
    "latitude": 50.5364,
    "longitude": 3.1309,
    "altitude": 32,
    "logements": 1098,
    "logementsMaison": 74,
    "prixM2Moyen": 2310,
    "vehiculesElectriques": 73,
    "croissanceVE": 28,
    "bornesPubliques": 5,
    "intercommunalite": "Communauté de Communes du Pays de l'Avesnois",
    "canton": "Ennevelin"
  },
  {
    "nom": "Pont-sur-Sambre",
    "slug": "pont-sur-sambre",
    "codeInsee": "59467",
    "codePostal": "59138",
    "population": 2371,
    "latitude": 50.2307,
    "longitude": 3.8484,
    "altitude": 164,
    "logements": 1078,
    "logementsMaison": 84,
    "prixM2Moyen": 1600,
    "vehiculesElectriques": 72,
    "croissanceVE": 31,
    "bornesPubliques": 6,
    "intercommunalite": "Communauté de Communes du Pays de l'Avesnois",
    "canton": "Pont-sur-Sambre"
  },
  {
    "nom": "Lewarde",
    "slug": "lewarde",
    "codeInsee": "59345",
    "codePostal": "59287",
    "population": 2353,
    "latitude": 50.3364,
    "longitude": 3.1682,
    "altitude": 40,
    "logements": 1070,
    "logementsMaison": 83,
    "prixM2Moyen": 2130,
    "vehiculesElectriques": 91,
    "croissanceVE": 27,
    "bornesPubliques": 7,
    "intercommunalite": "Communauté de Communes du Pays de l'Avesnois",
    "canton": "Lewarde"
  },
  {
    "nom": "Recquignies",
    "slug": "recquignies",
    "codeInsee": "59495",
    "codePostal": "59245",
    "population": 2338,
    "latitude": 50.2765,
    "longitude": 4.0491,
    "altitude": 34,
    "logements": 1063,
    "logementsMaison": 84,
    "prixM2Moyen": 2300,
    "vehiculesElectriques": 83,
    "croissanceVE": 25,
    "bornesPubliques": 8,
    "intercommunalite": "Communauté d'Agglomération Maubeuge Val de Sambre",
    "canton": "Recquignies"
  },
  {
    "nom": "Bersée",
    "slug": "bersee",
    "codeInsee": "59071",
    "codePostal": "59235",
    "population": 2318,
    "latitude": 50.4813,
    "longitude": 3.15,
    "altitude": 34,
    "logements": 1054,
    "logementsMaison": 80,
    "prixM2Moyen": 1990,
    "vehiculesElectriques": 81,
    "croissanceVE": 25,
    "bornesPubliques": 5,
    "intercommunalite": "Communauté de Communes du Pays de l'Avesnois",
    "canton": "Bersée"
  },
  {
    "nom": "Haulchin",
    "slug": "haulchin",
    "codeInsee": "59288",
    "codePostal": "59121",
    "population": 2281,
    "latitude": 50.311,
    "longitude": 3.4218,
    "altitude": 29,
    "logements": 1037,
    "logementsMaison": 85,
    "prixM2Moyen": 1620,
    "vehiculesElectriques": 84,
    "croissanceVE": 22,
    "bornesPubliques": 5,
    "intercommunalite": "Communauté de Communes du Pays de l'Avesnois",
    "canton": "Haulchin"
  },
  {
    "nom": "Faumont",
    "slug": "faumont",
    "codeInsee": "59222",
    "codePostal": "59310",
    "population": 2278,
    "latitude": 50.4503,
    "longitude": 3.1335,
    "altitude": 41,
    "logements": 1035,
    "logementsMaison": 82,
    "prixM2Moyen": 1670,
    "vehiculesElectriques": 60,
    "croissanceVE": 19,
    "bornesPubliques": 3,
    "intercommunalite": "Communauté d'Agglomération du Douaisis (CAD)",
    "canton": "Faumont"
  },
  {
    "nom": "Herlies",
    "slug": "herlies",
    "codeInsee": "59303",
    "codePostal": "59134",
    "population": 2267,
    "latitude": 50.5814,
    "longitude": 2.8504,
    "altitude": 43,
    "logements": 1030,
    "logementsMaison": 84,
    "prixM2Moyen": 1660,
    "vehiculesElectriques": 87,
    "croissanceVE": 18,
    "bornesPubliques": 3,
    "intercommunalite": "Communauté de Communes du Pays de l'Avesnois",
    "canton": "Herlies"
  },
  {
    "nom": "Gommegnies",
    "slug": "gommegnies",
    "codeInsee": "59265",
    "codePostal": "59144",
    "population": 2264,
    "latitude": 50.2643,
    "longitude": 3.7085,
    "altitude": 29,
    "logements": 1029,
    "logementsMaison": 82,
    "prixM2Moyen": 2230,
    "vehiculesElectriques": 92,
    "croissanceVE": 24,
    "bornesPubliques": 6,
    "intercommunalite": "Communauté de Communes du Pays de l'Avesnois",
    "canton": "Gommegnies"
  },
  {
    "nom": "Cappelle-en-Pévèle",
    "slug": "cappelle-en-pevele",
    "codeInsee": "59129",
    "codePostal": "59242",
    "population": 2257,
    "latitude": 50.5028,
    "longitude": 3.1722,
    "altitude": 35,
    "logements": 1026,
    "logementsMaison": 82,
    "prixM2Moyen": 2220,
    "vehiculesElectriques": 84,
    "croissanceVE": 18,
    "bornesPubliques": 7,
    "intercommunalite": "Communauté de Communes du Pays de l'Avesnois",
    "canton": "Cappelle-en-Pévèle"
  },
  {
    "nom": "Attiches",
    "slug": "attiches",
    "codeInsee": "59022",
    "codePostal": "59551",
    "population": 2245,
    "latitude": 50.5094,
    "longitude": 3.0605,
    "altitude": 45,
    "logements": 1020,
    "logementsMaison": 77,
    "prixM2Moyen": 1610,
    "vehiculesElectriques": 86,
    "croissanceVE": 27,
    "bornesPubliques": 4,
    "intercommunalite": "Communauté de Communes du Pays de l'Avesnois",
    "canton": "Attiches"
  },